osm_id,status,place_id,resolved_name,resolved_lat,resolved_lng,reason
21717872,resolved,ChIJ34h6RjjKlzMRkkZ5JET62uI,Ayala Museum,14.5535827,121.0233285,
24797807,resolved,ChIJPYnycmbJlzMRehGVEWz2PAo,Cartimar Market,14.5508559,120.9975074,
24815678,low_confidence,ChIJKxVXEvA1joARNQHQfZezRS8,Kamakura Japanese Restaurant,37.22552780000001,-121.9826667,distance=11278.4km>5.0km
24915119,resolved,ChIJC8d-NSvKlzMRN741NAKJtjo,Max's Restaurant - Malate,14.5691667,120.9833333,
25248731,resolved,ChIJR-wcWQDJlzMR0WerPOzsxGU,Starbucks - One Ayala,14.551378,121.027928,
25388531,low_confidence,ChIJI5-uxO7DlzMRqsFugYdjyN0,Madonna's Eatery,14.4841583,121.1871737,distance=21.6km>5.0km
25388992,resolved,ChIJnSlggqnOlzMRdsw9huxxmo8,Shakey's,14.5211026,120.9904298,
25388993,resolved,ChIJ39527lLJlzMRG-995DW8bso,McDonald's,14.5274157,120.9972408,
25389025,low_confidence,ChIJBSLviUu4-i0RWLqgmWWQhoY,Pasar Desa Bentot,-2.0591099,115.3271586,distance=1947.7km>5.0km
25389049,resolved,ChIJCR9tI63OlzMRbUIEXuKMCwM,Nichols Airport Hotel,14.5242993,120.9967896,
25389056,resolved,ChIJKXXDcU3JlzMRSac3c5Y76a8,Conrad's Grille,14.526439,120.999614,
25389109,resolved,ChIJjZFW50TJlzMR8ozWK4VgKvE,McDonald's Edsa Taft Rotonda,14.5382783,121.0005802,
25389121,resolved,ChIJqXDUP0XJlzMRDK14fTnPofc,Rotonda Hotel,14.5368467,121.0005038,
25426114,resolved,ChIJU4N8-sHJlzMR6_z4wrPf8o4,Chowking Rbcc Baclaran Roxas,14.5307843,120.9938159,
25426116,resolved,ChIJJ5v6fsPJlzMR2uzpuAhlSTY,Red Ribbon | EDSA Sgt. Mariano,14.5373507,121.0017497,
25426129,resolved,ChIJU4N8-sHJlzMR6_z4wrPf8o4,Chowking Rbcc Baclaran Roxas,14.5307843,120.9938159,
25583800,resolved,ChIJ-fvg7ADJlzMRMMgabVhibJ4,Chowking PRC-Makati,14.5719861,121.015562,
25583923,resolved,ChIJ4XhV2WfJlzMROF33M8fjAtY,McDonald's Taft Libertad,14.547609,120.9988294,
25677575,resolved,ChIJqd76Mn89oTMR6tlQGJBlEmY,Baracuda Seafood And Cocktail,12.9257518,123.5749266,
25677578,resolved,ChIJXUhzaHA9oTMRTsEaCTlW0Ro,Amor Farm Beach Resort,12.9187765,123.5823918,
25679277,resolved,ChIJZQ_iP-MDoTMR-AH7QZ7tmik,Villa Amada Hotel,13.1464799,123.7225472,
25679308,resolved,ChIJX0qdbFQBoTMRr6e5fydJp5Q,Daraga Bus Stop,13.1548293,123.7107889,
25679317,resolved,ChIJ__-_W10BoTMRLPgPl59yjeY,La Roca Veranda Suites and Restaurant,13.1560068,123.7467035,
25679322,resolved,ChIJ5V9xl2MBoTMRaA2Av9ciB8w,Renaissance Garden,13.1513997,123.7376279,
25679368,low_confidence,ChIJY5_dB2rHoDMRNlg1R-hTAfQ,LOLA MANAY'S ETERY,12.7498596,124.1358401,distance=61.5km>5.0km
25747602,resolved,ChIJj87O0iB2pTMRRmb-NYOk03w,Ramboy's Lechonan & Restaurant,11.7158413,122.3538546,
25747619,resolved,ChIJ1y3a0Ep2pTMRwWtfbK7aamY,Numancia Public Market,11.7042435,122.3310001,
25750846,resolved,ChIJj8UrUHE8pTMR7HccU-qt8jc,Azure Beach Club Boracay,11.9826991,121.9080842,
25750903,resolved,ChIJac9vy4KdpTMRtuumK4Qqtek,La Esperanza Hotel,11.7007436,122.3671798,
25750904,resolved,ChIJ4-mNKoOdpTMRC6aC7PNTAyc,Chowking - CityMall Kalibo,11.7056313,122.3680371,
25767747,resolved,ChIJjcKdfEE8pTMRA1HZXsV1T4M,Mount Luho,11.9789796,121.9279861,
26032657,low_confidence,ChIJp2V2aADLlzMRDJhhtvS0-7o,Philippine Xinxiang Dragon and Lion Dance Group,14.5997284,120.9782106,name_similarity=49
26032673,resolved,ChIJezYNly_KlzMRnvbehkL1K7w,Starbucks Avenue Square Garden,14.5802927,120.9810257,
26035475,resolved,ChIJOxNZDNzLlzMRApTYw1mDjrU,Spiral,14.5530873,120.9804776,
27915621,resolved,ChIJebJqNQDVjzMRyxuJ698zn84,view deck,17.0293712,120.9085276,
28997463,resolved,ChIJq6qqGilavTMRe57fy9C37hM,Villa Gregoria Resort,14.1185479,121.4168905,
165972238,resolved,ChIJY7EVgke4lzMRDeZbE2SDOiQ,McDonald's,14.6213126,121.1026302,
188124568,resolved,ChIJsXTpBy4cujMR2csCU2nYI5E,Two Seasons Coron Bayside Hotel,11.9932346,120.2109409,
188157494,resolved,ChIJYzrpn9MdujMRLcOZG0eE1WU,Maquinit Hot Spring,11.9915909,120.2281506,
198492707,resolved,ChIJsRen03QAlzMRyieUcjnZxaU,Chicharooms,14.9547373,120.9190217,
206253988,low_confidence,ChIJ2fAPc-ZVtjMRkophsneov8I,El Nido Beach Hotel,11.1832039,119.3924903,name_similarity=53
206257351,low_confidence,ChIJYzrpn9MdujMRLcOZG0eE1WU,Maquinit Hot Spring,11.9915909,120.2281506,distance=115.4km>5.0km
206258158,resolved,ChIJdaz3C4D7vDMRezmmhqGDKEk,LighthousePG,13.518931,120.9894694,
247895654,resolved,ChIJo-IaTX_JlzMRyHS9kLn5UIk,Jollibee Taft Ave Malate,14.5671697,120.9932796,
251456679,resolved,ChIJkcBe_RrJlzMREPkTc80bGi4,Pho Bac Vietnamese Specialties,14.5505046,121.0248927,
251456682,resolved,ChIJ49wYPXbJlzMRphDB1l2t_h8,Zhubajie Premium - Makati (쭈빠찌에 프리미엄 마카티),14.5644598,121.0319028,
251456684,resolved,ChIJo9O6gvDIlzMRuxFsPjuwP88,Pancake House,14.5527212,121.0449404,
251456685,resolved,ChIJc2ux__PIlzMRKLoiCNet5Rk,Starbucks 32nd St. and 7th Ave. Drive-Thru,14.5537475,121.0508284,
251456687,resolved,ChIJDfm94B3JlzMRRK_zW-1yqCY,McDonald's,14.5349119,121.0449211,
251456689,resolved,ChIJ6aJd6dzIlzMRY2MYS5oTX8s,Starbucks Teleperformance McKinley West,14.535816,121.0435311,
253499588,low_confidence,ChIJzd9Oqu9lvTMR-Hj4Nkj9yNU,Zark's Burgers - SM Sto Tomas,14.1053186,121.1513268,distance=12.1km>5.0km
255049847,resolved,ChIJzWgPXmTJlzMRZPC3Ky0q954,Jollibee Trium Square,14.553966,120.9949258,
255049855,zero_results,,,,,ZERO_RESULTS
255049862,resolved,ChIJCayHiqjJlzMRKb14lstVjcg,L'Incontro,14.5656406,121.0234165,
255049908,low_confidence,ChIJI5PTZ7O3lzMRNFhU82yu8Tw,Super Pixels - 3D Printing Solutions,14.6591884,121.0434872,name_similarity=36
255049910,low_confidence,ChIJXWUu6t-2lzMRoJq1FgW3QHs,Eight-to-Go Chihuahuas,14.667108,121.033007,distance=12.9km>5.0km
255050035,resolved,ChIJnbkxV6rJlzMRRNo86N3f2EE,MPT (Makati Prime Tower),14.5641417,121.030322,
255050244,resolved,ChIJlZsVfADJlzMRRAaDYbk97Kc,Chooks to GO,14.573934,121.048938,
255050356,resolved,ChIJE3GuDyXJlzMRzVrVjC8w4bw,Coffee Bean & Tea Leaf - Powerplant Mall,14.5656961,121.0363347,
255050424,resolved,ChIJM0PtezrIlzMRSafiGIdgzJE,Starbucks 515 Shaw Boulevard,14.5880409,121.0453541,
255050774,resolved,ChIJ1aLmHSnKlzMRARcoii1iHWI,Bacolod Chicken Inasal,14.5771842,120.9842405,
255051375,resolved,ChIJ4dvwDQLPlzMR00LyMBKd8G0,Memooi Cafe Moonwalk,14.4952361,121.0141812,
255052689,low_confidence,ChIJwYYZ5GnLlzMRX_Qgy8NOCkc,The W JTV,14.5709441,120.986785,name_similarity=53
255052939,resolved,ChIJBxKxQQLOlzMRwNsNQUUxPb0,Las Pinas Commercial Complex,14.4445516,120.9950392,
255053020,resolved,ChIJoVR1qL-3lzMR1Y2-c_OaLPo,Isetann Cubao,14.6227411,121.0534485,
255053246,resolved,ChIJt464MMe5lzMRKrOc2TOG9H0,Rocha's,14.6309176,121.0955743,
255053274,resolved,ChIJt-XyVGPRlzMRvQ7HgCyMAyE,Jollibee,14.4320538,121.0136935,
255053484,resolved,ChIJF79FwnrHlzMRwAnWNzd8Qns,Tropical Hut Hamburger,14.5791073,121.1351909,
255054669,resolved,ChIJOZakDQnJlzMRIxSFHztL2t0,McDonald's,14.5606689,121.0180172,
255056564,resolved,ChIJHVopuHTNlzMRpEs57c6OAIw,Jollibee Zapote,14.4653395,120.9679625,
255056800,resolved,ChIJ9_jsSDnJlzMR-in0qMRAI4A,Krispy Kreme,14.5529294,121.0448367,
255058205,resolved,ChIJ52CqHPXIlzMRQgs6Zr1NHJU,Texas Roadhouse,14.5566424,121.0537345,
255058212,resolved,ChIJo31M3TmvlzMR2rIPHWca0Po,Mang Pules Kambingan,14.8078625,121.0037344,
255058304,resolved,ChIJRW4oaQDRlzMR1x0cm8TTPTM,Jollibee Talon Uno,14.4391837,121.0018817,
255058333,resolved,ChIJ-4VVo2zIlzMR_-Ry4VlZBac,Elbow Room Metrowalk Ortigas,14.5874371,121.0640763,
255058375,low_confidence,ChIJCR2_MTrJlzMR-nF7DQo1hlo,Pao Cafe - SMDC Jazz Mall,14.5636752,121.0218814,name_similarity=44
255058390,resolved,ChIJhz5zGDzPlzMRkQAa2ry5peI,Upper Bicutan Market,14.5010939,121.0501722,
255058509,resolved,ChIJ07g0qvrIlzMR8cBkvrm1feY,McDonald's,14.5498683,121.044795,
255058579,low_confidence,ChIJT7camjTNlzMRMy1DDVkjtBE,Pho 24,14.4486019,120.98059,distance=14.2km>5.0km
255058720,resolved,ChIJIWIDX1S2lzMRw09OM1Y0TKo,Dulcelin Gourmet,14.6407619,121.0301591,
255058768,low_confidence,ChIJcZsXhPHIlzMRvBscwfOEi34,Pound x Flatterie BGC,14.5510253,121.0503161,name_similarity=52
255058838,resolved,ChIJOzhpnwvJlzMR4bH8ZKUrYjY,Tropical Hut GIL PUYAT,14.5606829,121.0137698,
255059058,resolved,ChIJS7ua-TS3lzMRjxRJ-bkEkww,Jollibee Mayon,14.6302902,120.9959042,
255059266,low_confidence,ChIJS8rXHwAAlzMR3UAFAyQ0k0g,Baliwag,14.9656856,120.8943088,distance=23.4km>5.0km
255059456,low_confidence,ChIJj7-VYFXHlzMRUqAAFjh5jM0,Chef Robert's Gourmet Food,14.5763768,121.0851097,distance=11.8km>5.0km
255059462,resolved,ChIJaX9Nh_HIlzMR2h0XLFBRR9I,TGI Friday's,14.5508224,121.0505571,
255059495,resolved,ChIJlyhkYlTIlzMRDk2pFafEji8,Kaya Korean Restaurant- Powerplant Mall,14.5647742,121.0364634,
255059567,resolved,ChIJr8hAVaLJlzMRe6Ocrs4CwV8,Greenery Kitchen,14.5762287,121.0155037,
255059858,low_confidence,ChIJMa2fSuDLlzMR-xhYcrRXgIE,Dampa Seaside Market,14.5451167,120.987143,distance=5.6km>5.0km
255059898,resolved,ChIJ_8DYDU_JlzMRz1oGDep3QIw,Via Mare - Ayala North Exchange,14.5598517,121.0156554,
255060000,resolved,ChIJT23sSqrJlzMRai1KlBnxMAk,"Firefly Roofdeck Restaurant, Makati",14.5647566,121.0292562,
255060020,low_confidence,ChIJWXMlOgC5lzMRtialOk7EZpk,Valley View Phase 3 Club House,14.5924985,121.1326602,distance=17.5km>5.0km
255060024,resolved,ChIJr9zC4MC3lzMRHVjf7bT0nVs,Farmers Market - Araneta City,14.6192503,121.0523754,
255060049,low_confidence,ChIJS_23WSCNGGAR0u8y4o_GYew,Shinjuku City,35.6938253,139.7033559,distance=2998.9km>5.0km
255060059,resolved,ChIJC8z4slDJlzMRp2HNOL7StF8,Kenny Rogers Roasters - Roxas Blvd,14.5356703,120.9933522,
255060145,low_confidence,ChIJV_5nBkC3lzMRDhxpmwChQ9M,EarthOrigins Marketplace + Cafe,14.6342817,121.0262501,name_similarity=43
255060418,resolved,ChIJZe-2tvrIlzMRb7uiroh2nAg,UCC Cafe Terrace,14.5502563,121.0447823,
255060511,zero_results,,,,,ZERO_RESULTS
255060716,resolved,ChIJewWV0_vLlzMR35E85dk3QJ0,The PAD By Padi's Point,14.5337248,120.9792175,
255060724,resolved,ChIJHWJ2ORDJlzMRRrHwX3LDuik,Watami Grill and Sushi Bar - Greenbelt,14.5521222,121.0201949,
255060751,resolved,ChIJK2hHPWm2lzMR9MvK4qns-Rg,Mightee Mart - Retiro,14.6346375,121.0062031,
255060752,resolved,ChIJhzXKixDIlzMRrFYAI310w-Q,Music Platinum Family KTV,14.5866644,121.0643892,
255060821,resolved,ChIJScfDb9THlzMRHW_Hf6XLq3g,Lumang Palengke,14.5574718,121.0843236,
255060904,resolved,ChIJ8xtMYfzLlzMRe_iBE4ekdeE,Pier One Bar And Grill,14.535138,120.9822547,
255060940,low_confidence,ChIJd0_7nzjJlzMRhS-abQh-fk0,Brothers Burger Diner - Ayala Malls The 30th,14.5808225,121.064578,distance=6.4km>5.0km
255061113,resolved,ChIJB7ex81O2lzMRn9fIep_rLM4,Great Eastern Hotel,14.6397187,121.0290237,
255061124,resolved,ChIJezncqGXJlzMRAS3BSp_EYnw,Hotel Sogo Buendia,14.5531902,120.996828,
255061127,low_confidence,ChIJIw-SRQCxlzMRto_L1OV0t3s,Wolhwa Galbi Fairview TerracesㅣUnlimited Premium Korean BBQ,14.7357962,121.0600801,distance=6.4km>5.0km
255061259,resolved,ChIJQThoXwC3lzMR6am_j-pmekQ,KFC,14.6304854,120.9962947,
255061264,resolved,ChIJlQhmywu2lzMRsrI2V4ygGqE,Mila's Lechon Laloma | Best Lechon Metro Manila | Best Lechon Philippines,14.625836,120.990352,
255061268,low_confidence,ChIJx7giVEnJlzMRmj-K-EKOmSA,Seareyna Food And Drinks,14.5297713,121.005156,distance=25.7km>5.0km
255061351,low_confidence,ChIJWzgMrBsdlzMRnZjE3MYRi4Y,Liam’s Bistro,15.2044101,120.9565873,distance=48.6km>5.0km
255061360,low_confidence,ChIJNwpTLQC3lzMRjVCfvCp_jcM,Bbq sa Kamias,14.6322664,121.0516404,distance=5.7km>5.0km
255061540,low_confidence,ChIJqT_h9Bq3lzMRdNAQjOBZQ74,Mommy Dolora's Pancit (West Avenue Branch),14.6390583,121.0260588,name_similarity=57
255061743,low_confidence,ChIJwfLt9prJlzMRdhDZduDbDrI,Som's The Original Thai Restaurant,14.5659253,121.0335573,name_similarity=50
255061928,resolved,ChIJx5yEKmnPlzMRVuYGGj4KgGk,Infinity Spa - Bay Area,14.5170564,120.9940109,
255062018,resolved,ChIJ2Zu6N1jIlzMRxd5POz4NABg,Dencio's Eatery,14.5622263,121.0463171,
255062367,low_confidence,ChIJO71IouPOlzMRaky9_X0VL3o,RCV Trading,14.4928846,121.0293479,name_similarity=36
255062506,resolved,ChIJcd1sGQDJlzMRS2hTGc3Y3Ek,St.Marc cafe-,14.5536185,121.0456091,
255062754,resolved,ChIJUxCdnsS1lzMRQm4bWpVcToo,Maypajo Public Market And Commercial Complex,14.6377406,120.974375,
255062916,low_confidence,ChIJ2zXFfHBUvTMRNthd20pWVxI,Lucban,14.1143955,121.5547237,distance=77.2km>5.0km
255063314,resolved,ChIJQQdEszvJlzMRgk8UuuZls0g,Starbucks Paseo de Magallanes Drive−thru,14.535392,121.0189188,
255063346,resolved,ChIJF7w9BsDJlzMRPooy2ALoAv0,SMOKEYS,14.5857826,121.0112301,
255063509,resolved,ChIJ0zS_cVK2lzMRpai8c1JApGQ,Johnny's Steak and Grill,14.635143,121.02968,
255063531,resolved,ChIJ2dFa8X-2lzMRgcjpcWW7Q0U,Swan Lake Restaurant,14.6501243,120.9880439,
255063568,resolved,ChIJf76urOizlzMR1eiYXBLiZOQ,Jollibee - Petron Marilao Northbound,14.763696,120.9635688,
255063778,resolved,ChIJc_NM2ya2lzMR1Y46YAiOTxA,Pizza Hut,14.6087203,121.017322,
255063833,low_confidence,ChIJ37FkNCG1lzMR7_p7FOFFpuo,999 Shopping Mall (Caloocan),14.6513684,120.9717047,name_similarity=54
255064101,resolved,ChIJq6p6vuq3lzMRevmgBaJL7zE,Fernandina 88 Suites Hotel,14.61906,121.0575948,
255064102,resolved,ChIJzbtbBwvJlzMRDLt5RvLkJ-k,Tiara Oriental,14.5615456,121.013368,
255064132,resolved,ChIJ3eiSQBLJlzMRhX843w1vF-I,Unakichi,14.5525555,121.0147581,
255064481,low_confidence,ChIJ7d3fXQBRljMRTxiQvKqrp0g,Ka Ihaw Grill House,14.8396695,120.7472885,distance=22.0km>5.0km
255064636,resolved,ChIJC8d-NSvKlzMRN741NAKJtjo,Max's Restaurant - Malate,14.5691667,120.9833333,
255064739,resolved,ChIJvdQp86y3lzMRvl68i89pc7Y,Hotel Rembrandt,14.6376333,121.0358047,
255064744,resolved,ChIJd8-Tjc3JlzMRdl3L7W0H05A,Pizza Hut Pioneer,14.5736715,121.0580547,
255064766,resolved,ChIJXWrfFm3PlzMRpOeBSlxf3sU,Jollibee Unioil,14.5002688,120.996805,
255064823,zero_results,,,,,ZERO_RESULTS
255064830,resolved,ChIJWbKs7lzLlzMRUhgbmJH0jKU,Mesa MOA Branch,14.5365888,120.9803104,
255064955,resolved,ChIJJQflFgDJlzMR26lDVqauz08,Brother's Burger | Manila Polo Club,14.5465916,121.0392957,
255065009,low_confidence,ChIJcUPUYajJlzMR_RFu51MIaWo,Caruso Ristorante Italiano,14.5653662,121.0229127,name_similarity=55
255065182,resolved,ChIJPfwAYqrJlzMRpQr7nsCmWR4,H&J Sports Bar and Restaurant,14.5629573,121.0306486,
255065286,resolved,ChIJJ0a_54uylzMRbrJhtYVRBd4,Four Kings Resort,14.7667782,120.9376575,
255065350,resolved,ChIJK6zLk_XJlzMRzl206QfyJwA,Skincarebud Makati - Makati Branch,14.5670151,121.0396595,
255065422,resolved,ChIJPQ9AxM_RlzMRoRs4fquCy1U,Yellow Cab Pizza Co.,14.4278125,121.0239685,
255065576,zero_results,,,,,ZERO_RESULTS
255065644,resolved,ChIJc_VX4N23lzMRBR01XnuQVIE,Choi Garden,14.605187,121.055135,
255065743,resolved,ChIJ5e-YpQHKlzMR3SQ_1boilQk,Central Market,14.6072187,120.9850692,
255065746,low_confidence,ChIJjWbGiQ63lzMRbJBfXQMF0qo,New Kamameshi House authentic japanese cuisine,14.6653976,121.0436607,distance=12.1km>5.0km
255065872,resolved,ChIJ45V4VRDJlzMR-1ALSKheMWw,Milky Way Cafe,14.5508374,121.0195054,
255065889,resolved,ChIJwet_nKzJlzMRkJlmKNqjosE,Robelle Hotel Makati,14.5680614,121.0293767,
255066226,low_confidence,ChIJ9TbFBpVqVBMRGIOUlS4J0_A,Butel,42.0895068,21.463361,distance=9680.4km>5.0km
255066352,resolved,ChIJD7ohf3K2lzMRKObT1AqIP8I,Goldilocks,14.6315562,120.9989283,
255066357,resolved,ChIJOZakDQnJlzMRIxSFHztL2t0,McDonald's,14.5606689,121.0180172,
255066415,resolved,ChIJeYzsshO2lzMRvZ3PvfDftK8,Pan de Manila,14.624932,121.002144,
255066505,resolved,ChIJiQYyz6jJlzMR-VsgSjaZvWo,Cucina Reposo,14.5676512,121.0238545,
255066581,low_confidence,ChIJO73oN4CqlzMRKH_ePvDWHAQ,La Florentina Resort,14.9473511,120.9393883,distance=19.5km>5.0km
255066744,low_confidence,ChIJxUbtDQbJlzMRThZ81oxqOx0,"Pan de Manila Valero Carpark, Makati",14.55853,121.023203,name_similarity=56
255067033,resolved,ChIJr9EMQBDJlzMRfH_YD87kKik,SUGI,14.5499153,121.0245856,
255067079,low_confidence,ChIJc2-Ci-DJlzMRYq0Fw0ROHCE,Bourbon New Orleans PH,14.5630083,121.0289895,distance=5.1km>5.0km
255067086,resolved,ChIJb-sW2QjJlzMRQCSxK4E1JlI,Starbucks Signa Designer Residence,14.5592514,121.0194029,
255067138,resolved,ChIJF3lBfqrJlzMRPR9i8kWLMoI,Handlebar Bar and Grill,14.5623486,121.0304999,
255067248,resolved,ChIJ9WiIsWy2lzMR68wmK6yWeOc,McDonald's,14.6283813,121.0040151,
255067297,resolved,ChIJpdrmHSnKlzMRg2sIHUBt0YE,Wendy's - PGH Taft,14.5781,120.9873842,
255067322,resolved,ChIJN4OT2IPOlzMRju9TbFB6LLI,Oyster Plaza Hotel,14.4896737,120.9910879,
255067386,resolved,ChIJKflB6lK2lzMRaLlzVfQB6Pk,Sir Williams Hotel,14.6356103,121.0325562,
255067433,resolved,ChIJMfQ0DgfJlzMRyTo1RmPzUAc,Elbert's Steak Room,14.5610309,121.0255175,
255067530,resolved,ChIJ9wNCbhivlzMRuzdbSlxkYlw,RH Victoria's Restaurant & Catering Services,14.828641,121.043094,
255067602,resolved,ChIJQViINNa2lzMRHqdQ1wH24_I,Pizza Hut,14.6789232,121.0323329,
255068024,resolved,ChIJc2ux__PIlzMRKLoiCNet5Rk,Starbucks 32nd St. and 7th Ave. Drive-Thru,14.5537475,121.0508284,
255068205,resolved,ChIJf44DyILNlzMRPQBOJrCFofc,BC2 Digman Halo-Halo Special Refreshment Parlor,14.4603583,120.9431889,
255068231,resolved,ChIJRSd-2AHJlzMRHCw4K52W0w8,Yamato Bakery Cafe,14.558231,121.0333635,
255068245,resolved,ChIJRTNYMaHJlzMRQZROKCifT48,Buddy's Kakarong,14.5699952,121.0174667,
255068430,resolved,ChIJKcmcmvi3lzMRLc-zZOBlX1k,Jollibee - V. Luna Kalayaan,14.6359348,121.0548159,
255068543,resolved,ChIJIfBMqiDHlzMRHI1OMKDV2K8,Talipapa,14.5897121,121.0912157,
255068769,low_confidence,ChIJyTGNZIHOlzMRzXNBEI4Gh0I,Starfleet Reflex Zone,14.48982,120.991412,name_similarity=54
255068817,resolved,ChIJJ0ydnAzNlzMRWd4TKhJV0W0,Jollibee,14.4515968,120.9773487,
255069032,resolved,ChIJ14N2K1q0lzMRFpzLZovoCyU,Dolor's Kakanin,14.6699954,120.9481112,
255069136,resolved,ChIJN-W97aTIlzMRIVzpIHRLwnQ,Taguig City Hall,14.528924,121.0698904,
255069228,resolved,ChIJu01fMQMAlzMRpPjPI86n2Hc,La Familia Sizzlers & Restaurant Functions & Catering Services,14.9647429,120.8996863,
255069505,resolved,ChIJAQAAAKnOlzMRQ1C91SVkDnA,Starbucks 9 Diosdado Macapagal Blvd Drive-Thru,14.5280999,120.9896874,
255069701,resolved,ChIJKxfU4IDJlzMRQz1ljYsyNjY,Starbucks Ayala North Exchange,14.5598258,121.0153629,
255069904,resolved,ChIJ4SHVPpxUljMRqFbINlmfDlU,Guilbert's Place,14.8677724,120.8600996,
255069907,resolved,ChIJSajtAkXJlzMRI8ik3TV50nY,Masagana Mall,14.5377516,121.0013794,
255069989,resolved,ChIJ64LfOgDJlzMR2Bod7uJdhIM,Mang Inasal,14.5241117,121.0126203,
255070072,resolved,ChIJoS-wbrXSlzMR4ClIBC4_MEA,Josephine's,14.4380077,120.8974201,
255070087,low_confidence,ChIJGXo5VxrKlzMRE3cVnCTQZA4,Escolta Street,14.5979582,120.9785932,distance=6.9km>5.0km
255070192,resolved,ChIJx6_4yT_IlzMRzQCwGj01Rso,Sumo Sam,14.5813118,121.0548134,
255070216,resolved,ChIJN2Fbr9zRlzMRlsiFClLRxNI,Pizza Hut Alabang,14.4304004,121.0158218,
255070233,resolved,ChIJZ-9hzEWwlzMR-nBTSN-RvHg,Wet and Dry Market,14.7397366,121.0476612,
255070267,resolved,ChIJWwzGKIC4lzMRK8PUq-ix6ks,Nature's Camp Cafe (LIKE NATURE),14.5888694,121.1249046,
255070294,resolved,ChIJDZo6jsO4lzMRyQypBNTchL8,Padi's Point Sumulong Branch,14.6131708,121.1529111,
255070297,resolved,ChIJzXqsWsvJlzMRSdQFEn9cP3w,Jones All Day,14.5494243,121.054237,
255070439,resolved,ChIJVaUTu6atlzMRhEQmkZdSUy4,Sarsa At Inihaw,14.8085466,120.9465123,
255070490,resolved,ChIJ_7955yvKlzMRy4aRyYzpLOY,Las Palmas Hotel de Manila,14.573656,120.983375,
255070540,resolved,ChIJm-GtN9bLlzMRZatLGbYELwY,Army And Navy Club Of Manila Incorporated,14.5787753,120.9762036,
255070663,resolved,ChIJ-e9_j27IlzMRTSxYxPIqbFM,Shakey's Pizza Parlor - Kapitolyo,14.5735962,121.0621917,
255070731,resolved,ChIJh1vJBqrJlzMRv_czQLwP9Qk,Paris Délice,14.562601,121.028159,
255070777,resolved,ChIJqaMavpnOlzMR0AlalMuDK-w,Luk Foo Cantonese Kitchen,14.5009735,120.9973605,
255070844,low_confidence,ChIJzyjM68dZnAARYz4p8gYVWik,Brazil,-14.235004,-51.92528,distance=19256.2km>5.0km
255071074,resolved,ChIJ--cT7fLIlzMRDty8wazhAwg,Hossein,14.5496178,121.0534955,
255071200,resolved,ChIJR2OgBhLJlzMR8MD7qoJyk_4,Big Brother,14.5569066,121.0155462,
255071218,low_confidence,ChIJy7_W_afJlzMR8DGR_kSTJ-o,RYU Ramen,14.563838,121.0222545,distance=7.6km>5.0km
255071288,low_confidence,ChIJuT19YgDPlzMRmAULjuf-UnY,Central Square,14.4521245,121.0302395,name_similarity=50
255071313,zero_results,,,,,ZERO_RESULTS
255071316,low_confidence,ChIJueSuPKzJlzMRD8s1unyvI1A,Artina Zobel Residences,14.5681785,121.0278941,name_similarity=57
255071482,low_confidence,ChIJNTKdOSXKlzMRg0UMabKe1YI,José Rizal Monument,14.5817917,120.9770458,distance=10.9km>5.0km
255071584,resolved,ChIJDaNYQqrJlzMRw_xQw7J-6u4,Filling Station Bar And Cafe,14.5634525,121.0296742,
255071847,resolved,ChIJGf-JNlbJlzMRwG1YSzA7cZY,Jollibee,14.5341291,120.9887869,
255071872,low_confidence,ChIJd8I66dMkdzYRHF0pHL33vok,East Asia,38.7945952,106.5348379,distance=3044.8km>5.0km
255071890,low_confidence,ChIJvdQK4kstljMRggF5lU-I2o4,Irasan Salt Farm,14.4446847,120.890616,distance=12.4km>5.0km
255071899,low_confidence,ChIJqdja9k-plzMRdiiTIVEbmes,Petra’s Kitchen and Cafe,14.8901582,121.0368832,distance=32.1km>5.0km
255071936,resolved,ChIJN7FVr667lzMRBj95c1vNuk0,Buckle Up Carwash,14.7226634,121.1409044,
255072141,resolved,ChIJZ26dxhHJlzMRAL85izzlbBU,Coffee Project Mosaic,14.5525486,121.0181274,
255072177,resolved,ChIJ8evli5mwlzMRQTzSqEfqapM,Jollibee Fairview Regalado,14.7061735,121.0698824,
255072238,resolved,ChIJq3eB2mfIlzMRaH7o5QbPwfc,RUB Ribs & BBQ - Kapitolyo,14.5677778,121.0586111,
255072280,resolved,ChIJi7RYKj3JlzMRBmjjV4x5u4I,"4th Floor DPC Place Builing, 2322 Chino Roces Ave, Makati, 1200 Metro Manila",14.5314755,121.0235396,
255072323,low_confidence,ChIJNdWdSuDLlzMRuLdz4zz4dXg,Trinity Ihaw-Ihaw & Food House,14.5448012,120.9862922,name_similarity=56
255072335,low_confidence,ChIJm4hbZnHJlzMRMOpGN4OSNjI,Secret Recipe,14.5507446,121.0270908,distance=5.5km>5.0km
255072468,resolved,ChIJVwM4ldXLlzMRvSUhW5FSKuA,Admiral Hotel Manila - MGallery Collection,14.5653008,120.9850956,
255072604,resolved,ChIJg3nYS4jJlzMR-DjsUvp1AWI,Jollibee,14.5343264,121.0036627,
255072694,resolved,ChIJNYW9Wh_JlzMRMgMGKPN14xg,Bistro Breakfast Buffet Restaurant - City Garden Hotel Makati,14.5642586,121.0293127,
255072725,resolved,ChIJ8wv2q-S2lzMR9edUJCwCEyw,Andok's,14.6559037,121.0274182,
257689739,low_confidence,ChIJ9WYcvXTJlzMR_iRW0i_JrdY,San Juan Bridge,14.6018879,121.0204403,name_similarity=59
259421979,resolved,ChIJKcmcmvi3lzMRLc-zZOBlX1k,Jollibee - V. Luna Kalayaan,14.6359348,121.0548159,
261028053,resolved,ChIJR4CDXwDJlzMRSGPUh8x_UHI,Chowking EDSA Philtranco DT,14.5376191,121.0041904,
262114185,resolved,ChIJI1g7nCI8pTMRxSmpdF32Taw,Heidiland Deli,11.9622279,121.9252943,
262114190,resolved,ChIJ-9fuQyI8pTMR3PBMi-NNbeQ,Hotel Seraph Boracay Island,11.9718394,121.9274003,
262114191,resolved,ChIJ__8_dSI8pTMRJytxhb8yLko,"Henann Palm Beach Resort, Boracay",11.9563169,121.9276477,
262114201,low_confidence,ChIJGfw4V4bJlzMRpQkPuLAm8fc,The Club Ten Beach Resort,14.575827,120.9911172,distance=307.5km>5.0km
262114202,resolved,ChIJUagBwSI8pTMRDKXFzo_9-7M,Maxima De Boracay Hotel,11.9634918,121.9261921,
262114205,low_confidence,ChIJYYV8Si5K6B4RkFB5nFFNrmc,Tropical Paradise Guest House,-25.4960711,30.97763399999999,distance=10670.3km>5.0km
262114232,low_confidence,ChIJK-TKoNzZlzMR8Q_WDFMywwk,CRISELDA RESORT,14.2992594,121.1159266,distance=274.8km>5.0km
262114233,resolved,ChIJEdt_gyE8pTMRMxWYc2BcJ-M,Benross Paradise Inn (formerly Benross Beach Resort),11.9568708,121.9290426,
262114238,resolved,ChIJ3aFR_0M8pTMRIGxKq0s1Dd4,Tawhay Villa,11.9793118,121.9297591,
262114246,resolved,ChIJGyjNcxc8pTMRVriHsSTcDho,Villa Paula,11.9661,121.92118,
262114249,low_confidence,ChIJ8ZtAIAeFJRMR-gwpKkf66Ys,Il Partico,41.7289032,12.6612421,distance=10664.9km>5.0km
262114252,resolved,ChIJM2hVxmw8pTMRIG_cwsvjKVU,The Strand Boutique Resort,11.975398,121.9160323,
262114253,resolved,ChIJiTeWnl4-pTMRhupzFNvPWI0,Tolosa Tourists Inn,11.9302492,121.9523393,
262114254,resolved,ChIJTT2hbl4-pTMReCL32rj_oes,Casimero Lodging House,11.9295991,121.9520047,
268547684,low_confidence,ChIJ_21MStT_0IgRJuoHBhK_V5o,Galley Grill,24.661015,-81.444043,distance=15029.6km>5.0km
276308572,resolved,ChIJaZOvRrzPlzMRHFPAG-TuTG0,Toho Antigua,14.4581594,121.0322494,
279607369,resolved,ChIJf0SU6HaOpzMRI0Kz__O1OgQ,Agta Beach Resort,11.6392924,124.3612574,
281004241,low_confidence,ChIJu1CG_G3O7kYRuaAnzV5e-BA,ieskaties.lv,56.9688836,24.107855,distance=9070.6km>5.0km
281012387,resolved,ChIJ-yeYOn-3lzMRhGyBbPIpgH4,KFC,14.640309,121.07429,
281021045,resolved,ChIJi3fU1IG3lzMR9-TrmWbdRHc,John Gokongwei Student Enterprise Center (JSEC),14.6378095,121.076313,
281135422,resolved,ChIJOR6P1le_lzMRVtZeHm_WOjc,Max's Restaurant,14.5815469,121.1799973,
281135483,resolved,ChIJN5kgFKrAlzMRdwJW6NiJeo8,KFC,14.5874526,121.1756672,
281135500,resolved,ChIJV-qREKrAlzMRT81g-L31x2g,Pizza Hut San Roque,14.5811679,121.1759941,
281141185,resolved,ChIJNStCyn-3lzMRz8tYs61FPe0,Rizal Mini Theater,14.6402345,121.0779572,
281142099,resolved,ChIJsbWKfQC3lzMRRhz78qszDbc,Rock Garden,14.6516482,121.0482655,
281142383,low_confidence,ChIJqeDi7GvJlzMR5DdX9C2X6hs,Bai A Taste of Dumaguete-Parañaque,14.5036097,121.0235131,distance=16.0km>5.0km
281145201,resolved,ChIJYTtC8YG3lzMRX0_53QFQvQM,Kenny Rogers Roasters - Katipunan,14.6375627,121.0740509,
281431310,resolved,ChIJITqqy-i4lzMRf0YyMoHGJIo,Grilla | The Old Spaghetti House,14.6164801,121.1425871,
281431351,resolved,ChIJc8oMy-i4lzMRjVuSJEBQwtI,Grilla Bar And Grill,14.6167677,121.1430739,
281431603,resolved,ChIJMRuQIua4lzMRssxvOiiin3E,Seven Suites Hotel & Restaurant,14.6175001,121.1429996,
281876732,resolved,ChIJrXWG8yq5lzMR5KLi9FCQy2U,"Barangay Government of Bagong Nayon, City of Antipolo",14.6259046,121.1685747,
281878155,resolved,ChIJheXmZrK4lzMRMI-US87lPqE,Hinulugang Taktak Protected Landscape,14.5940984,121.1680265,
281949969,resolved,ChIJdSyMa5W3lzMR409mDUa9zRc,Dulaang Sibol Theater,14.6446709,121.0808179,
282077625,resolved,ChIJNev-FVJNqjMRpk4oja6EHi4,Hinagdanan Cave,9.6254774,123.8009449,
282200765,resolved,ChIJ46RwVJi5lzMRe2egC4VdeG8,Jollibee,14.6216359,121.1083478,
282388201,resolved,ChIJK0TIPP23lzMR4BYWrWJ3u9Y,Starbucks Temple Drive,14.6001472,121.0692175,
286083526,resolved,ChIJpaN08lK2lzMR8sfsP3xDzRI,Jollibee Scout Tobias,14.6362118,121.031411,
286161073,resolved,ChIJkycjnQm3lzMRCnoOjOYqd6c,McDonald's,14.6445177,121.0498391,
286161483,resolved,ChIJLURjhQu3lzMRtc9E3j669YU,Fersal Hotel,14.6462122,121.052959,
288468544,resolved,ChIJiT-xJgC5lzMRMrp3ThfejbE,Starbucks Don Antonio Drive Drive Thru,14.6772095,121.0845514,
288469498,resolved,ChIJYyMdLwC6lzMRciLwkoLWubQ,The Big Tent Venue,14.679106,121.08169,
291713407,low_confidence,ChIJ13eKuRjKlzMRnMWfme0Gjmw,Bonifacio and the Katipunan Revolution Monument,14.5909323,120.9810749,name_similarity=59
292210116,resolved,ChIJVVVVlTzjlzMRYKKDvAHQvXA,Asian Traveller's Hotel & Restaurant,14.2664875,121.4247344,
293672631,resolved,ChIJ30T0JYOzlzMRIbWCPKJbUog,Museo ni Dr. Pio Valenzuela,14.7085648,120.9450658,
294049660,resolved,ChIJg5jp68DLlzMRdQYQdpvUUxY,Headquarters of General Douglas MacArthur,14.5867132,120.9746519,
294050136,resolved,ChIJKfe2MDvKlzMRD8QKA2gCEy0,Miguel Lopez De Legazpi & Andres De Urdaneta,14.583955,120.97552,
294050348,resolved,ChIJCYVTSyXKlzMRexaXwoaDM8A,Kilometer Zero,14.5813079,120.9761805,
294051178,resolved,ChIJMYg7gRq2lzMRvr2wY_Gbd-w,Mabuhay Rotonda,14.6176688,121.0018259,
295835619,resolved,ChIJT9APJMxcvTMRXCpZDLA-hqo,McDonald's,14.0705454,121.3238647,
297424197,resolved,ChIJQ76G0tVcvTMR_jjkQcLAFfo,A & P Suites and Inn,14.073524,121.3175704,
299183083,resolved,ChIJwfp78g_JlzMRDjdl_Cn2LNQ,Tomb of the Unknown Soldier,14.5198592,121.0442422,
299389651,resolved,ChIJp15mPxvJlzMRdVO-kPFsLFU,Ascott Makati,14.5510313,121.0264059,
299453008,resolved,ChIJq6qqunX8lzMRNIeZqZLC3uY,Japanese Garden,14.2835191,121.5105925,
300260057,low_confidence,ChIJ5Wmki06ZqTMRjBpyPwKxMHA,Fuente Osmeña Circle,10.3102031,123.8936769,distance=567.2km>5.0km
300782871,resolved,ChIJByhSjSE8pTMRYtqKLlmANwg,Villa Sunset Boracay,11.956797,121.9287767,
301828774,resolved,ChIJqyPS6Am5lzMRgIgneKYJTgk,Eastwood Citywalk 1,14.6093088,121.0809572,
301977497,resolved,ChIJEY2zuB24lzMRuUAb5874dCU,Eastwood Citywalk 2 - Main Entrance,14.6101352,121.081176,
301977604,resolved,ChIJKZW9oB24lzMR8yKWJdxKrRQ,Eastwood Cinemas,14.6090156,121.0811191,
303739940,resolved,ChIJKUwZCgCtqzMRE7uZpsyN760,Amarah's Pasalubong and Souvenir,9.5617382,123.7769894,
303740394,resolved,ChIJnXotQz9OqjMR3hTkIXvkbak,Baclayon Art Museum,9.6229589,123.9124882,
303740579,resolved,ChIJy3qxDZusqzMR6QatTUe68ac,Villa Almedilla,9.5487653,123.769387,
303741560,resolved,ChIJifsB2klTqjMRiJaybGBPWi4,Eskaya Beach Resort & Spa,9.5521895,123.7903877,
305137265,low_confidence,ChIJH1JnIPO1lzMRqdybIWLF0ec,Boom Na Boom Boutique,14.6205312,120.9659725,distance=7.8km>5.0km
305562639,resolved,ChIJl-_iAsxcvTMRkzw5hLfTz6w,Jollibee San Pablo Plaza,14.0705701,121.324945,
305566690,resolved,ChIJZ-LuCMxcvTMRqX1e8yRW5cQ,Andok's,14.0700261,121.3253376,
306339787,resolved,ChIJgcG2OFPHlzMRGb2atT80ydA,Gerry’s,14.5817967,121.1319325,
306408839,resolved,ChIJxfYDih24lzMRB0CDv0mKcSw,Eastwood Mall,14.6105509,121.0799139,
307579371,resolved,ChIJjb5dfQLepDMRPkzEUV-7ves,Angelique Inn & Restaurant,12.2596038,121.9923887,
308729289,resolved,ChIJM0BR_SBs-TIRQsPAv-bvk3o,Waterfront Insular Hotel Davao,7.1064224,125.6503109,
310325213,resolved,ChIJayCDF6rcpjMRR_bO9uwpEWE,Victoria Du Hotel,12.3665842,123.6217974,
310526581,low_confidence,ChIJx9MjfpqkkDMRDra3iiKM69s,Balete Tree (Millenium Tree),15.7697305,121.4770146,name_similarity=58
310731513,resolved,ChIJxcg-ZsxcvTMRtw27TwOeCZU,Maligaya Bakery,14.0688711,121.3243258,
311043884,resolved,ChIJCRY3cKWhkTMRAyhJgf5fN6o,Pinewoods Golf Club Baguio,16.3973991,120.5646792,
311463620,resolved,ChIJ1_3nDcl5vTMRERhUrKbO2Sw,Ang Pagdakip kay Bonifacio Historical Marker,14.20002,120.9031201,
311481583,resolved,ChIJUf2XN3mxvTMR9s22S1xLHWc,Cape Santiago Lighthouse,13.7720074,120.6530943,
311568428,resolved,ChIJBxujhOnIlzMRlFEu4ycSgK0,Manila American Cemetery and Memorial,14.5410774,121.0499204,
311903286,resolved,ChIJ3fK3f6-nkTMRkX9JpN9gSmk,Crosby Park,16.3649192,120.6447206,
311959728,zero_results,,,,,ZERO_RESULTS
312118640,low_confidence,ChIJ3XUsNDMwSoYRfbKU6KRUXg4,Sulphur Springs,33.1384479,-95.6010668,distance=13499.9km>5.0km
312124508,resolved,ChIJI6OWjQ1-vTMRNVU5WOqXUEU,Agape Springs Farm and Resthouse,14.2630933,120.9790381,
312499076,resolved,ChIJ0RcpIXnXlzMR_hLkp3ydXUg,Starbucks Shell SLEX Drive-Thru (North bound),14.3101568,121.0733904,
312499077,resolved,ChIJZzYwSl7XlzMRwZj-QPhbCoo,Pizza Hut Binan,14.3294986,121.0761907,
312499078,resolved,ChIJ944VJjnXlzMRDZ1KnKJ-Vys,Jollibee,14.3113206,121.0721159,
312681020,resolved,ChIJFfFJVUVXvTMRMOJzzerwI2s,DGRJ Resort,14.1391747,121.4570688,
312982201,resolved,ChIJtUAOgvNlvTMRUo4gyK716Lk,Chowking SM Sto. Tomas,14.1062416,121.1508949,
312985379,low_confidence,ChIJ-yI1ewBLkDMRvQSEqDWBOz8,Mount Pulag Summit,16.5978301,120.8988048,name_similarity=44
312985870,low_confidence,ChIJnXjM6NdKkDMRZ7wAfTrBM6A,Camp 2,16.5837991,120.9062147,name_similarity=33
313434717,resolved,ChIJK1x69RnAljMRs8Z_w04rmA4,Capas National Shrine,15.3489809,120.54523,
313470641,resolved,ChIJtaJ2AZVlvTMR1tzhBRMn-n8,KFC,14.1095885,121.145479,
313474058,resolved,ChIJiw2stEFdvTMRrcJdGB0Yln8,Henyo’s Lugaw Royal,14.069468,121.32426,
313744149,resolved,ChIJtXkHq0zWjzMRCj218BiN0uI,Polis Pass,16.9666667,121.0333333,
314081068,resolved,ChIJDTsnDjSJpDMRV6hGFAVcRNI,Romblon Plaza Hotel & Restaurant,12.5765328,122.270027,
314081107,zero_results,,,,,ZERO_RESULTS
315516461,resolved,ChIJsx4zCnbZlzMR3WYBPtSENxk,Jollibee Balibago Complex,14.2940258,121.104284,
316022883,resolved,ChIJecZqvEIW-TIR6Soqein3bPk,Lispher Inn,7.060244,125.593766,
316166231,low_confidence,ChIJXfMY2XzLlzMRyDg6iwQg5AE,京都KYOTO JAPANESE RESTAURANT,14.5729827,120.9859244,name_similarity=40
316548327,resolved,ChIJk179evnJlzMRQ9hUVxDH7g0,Jollibee Legarda Bustillos,14.6013482,120.992812,
316549314,resolved,ChIJsaqqqnq9lzMRqSd7QfPvSzY,Mount Purro Nature Reserve,14.6774457,121.2440188,
317003679,resolved,ChIJs8eiGzSZqTMR4BnligHzP7U,Mayflower Inn,10.3246767,123.8902688,
317254215,low_confidence,ChIJwY3kyevBljMR-QbUIPtxCHU,New Clark City Aquatics Center,15.3430635,120.5291293,distance=23.1km>5.0km
317999037,resolved,ChIJH81Yqxhs-TIRq0WAf8FsC20,Hotel Elena | Lanang | Adgao City,7.1100321,125.6476142,
318875147,resolved,ChIJ9Y81yqRt-TIRTINJH47W67I,Linmarr Apartelle,7.0812181,125.6201109,
318875475,low_confidence,ChIJPeQyzUBs-TIRLVklojLA1pM,Crown Regency Residences Davao,7.091380099999999,125.6236545,name_similarity=29
319682964,resolved,ChIJW3hj55tt-TIR5pK_SpcWEsg,Jollibee,7.0824132,125.6231655,
319683099,resolved,ChIJccNednht-TIR_NnS2s6NHiI,McDonald's,7.066504999999999,125.6093385,
319683176,resolved,ChIJIdZTLolt-TIR0tDi_aXsscY,Greenwich,7.0692793,125.605571,
320129674,resolved,ChIJW6H2ijAUvTMRcM3pmNFnVtA,Tombol Hill,13.8488889,121.2066667,
320407478,resolved,ChIJQapk3Hht-TIRojAZ_A-XclQ,Jaltan Food Centrum,7.064429,125.607306,
320808262,low_confidence,ChIJFTJhO6DDyIARYDGW3cJwH2o,Tony Roma's,36.1710636,-115.1431193,distance=11860.3km>5.0km
321793734,low_confidence,ChIJM0klo3OdqTMR0eyXq9t2aXw,Cafe de Cudera,10.2600281,123.8457857,distance=8.0km>5.0km
321793759,resolved,ChIJwzeb80uZqTMRKAPyha69YxY,Yayoy's Grill & Resto Bar,10.3128507,123.8902841,
321793777,resolved,ChIJwcXXjUuZqTMRJdZ8Q-hQZvI,STK ta Bay!,10.3131838,123.8901062,
322750919,resolved,ChIJczMdFOBuqzMRzWk-KlC4nU8,Casablanca Restaurant Dumaguete - Cafe Bar & Fine Dining,9.3085043,123.3094963,
323609232,resolved,ChIJf8l4IS_xBzMRBiOdmodZajc,Ormoc Lighthouse Christian Ministry,11.0149962,124.6057116,
323793510,resolved,ChIJWxdKTDZ5vTMRnVSeMkpG53g,Ilog Maria,14.1899639,120.9678438,
325107525,resolved,ChIJkw8UbK23lzMRm8yWbaDXq6Q,11th World Scout Jamboree Memorial Rotonda,14.6348409,121.0353466,
325136789,resolved,ChIJ29rYNqW5lzMR_zHbJQnKp50,Pan De Amerikana - Marikina,14.6443483,121.1143509,
325283740,low_confidence,ChIJt8PteKR3vTMRR_X1wZxEF1Y,Taal Vista Hotel,14.095416,120.934674,distance=6.4km>5.0km
330147243,resolved,ChIJb1VVVfkkvTMRmYS2olS-QRw,Moonlight Beach Resort,13.6715001,121.3906461,
330378076,resolved,ChIJT7Z6TxvKlzMRqpCEEiENjpo,Chowking Sta. Cruz,14.5998719,120.9807508,
331119850,resolved,ChIJaW4id8-5lzMR8scAZFfmWs4,Unang Misa sa Baryo ng Jesus de la Peña Historical Marker,14.6342001,121.0919299,
331119873,resolved,ChIJU9WS7DO4lzMRrR_GSqv_768,Macky's,14.6312508,121.0955917,
331699095,resolved,ChIJRxdBzRW2lzMRiCVTaL_uiFA,Ma Mon Luk,14.6229782,121.0077667,
331699595,low_confidence,ChIJ13eKuRjKlzMRnMWfme0Gjmw,Bonifacio and the Katipunan Revolution Monument,14.5909323,120.9810749,name_similarity=44
332519649,low_confidence,ChIJyfBatZvHlzMRbNkbT2p92Zs,Aling Tinay Pasalubong Store,14.576681,121.1167536,distance=12.0km>5.0km
332955552,resolved,ChIJF-6BahrIlzMR0D39djrtuxs,Meralco Theater,14.5898506,121.0639004,
333422860,resolved,ChIJSZz_9_vLlzMR89t8OOeHXQs,Exploreum,14.5335787,120.9818858,
333432882,resolved,ChIJa9-yU_vLlzMRpQUidvpF3Rc,Starbucks One E-Com Center,14.538,120.981,
333436571,resolved,ChIJ46k7-BXIlzMRzVZRt-vytAE,SM Cinema | IMAX Mall of Asia,14.5366339,120.9799062,
333438698,resolved,ChIJbR--IVjJlzMRZ0nRUCJ0ITk,McDonald's,14.5369935,120.9891822,
333449495,resolved,ChIJm7FZAvvLlzMRND7t94rDdE8,Blackbeard's Seafood Island - SM MOA,14.5365481,120.9791,
333957091,resolved,ChIJuaddbQHVlzMRekH2tb0xI_k,"TAPSILOG, Dongalo's Best, Parañaque",14.3246418,120.9369901,
334473196,resolved,ChIJKxcHeeh5vTMRYwespgA55Ck,Moon Garden Tagaytay,14.1268884,120.9678801,
334474209,resolved,ChIJVxbNpN55vTMRBYlAnZmsbYw,Amira's Buko Tart Haus,14.1281338,120.958263,
338869335,resolved,ChIJfRC8kwf3ljMReyvBuBgnTcY,Teresita Razon's,15.0305345,120.6751471,
339136478,resolved,ChIJPVt779O3lzMRMazHXGdcLec,Mien San Noodle House 面膳,14.6082752,121.0385199,
339136508,low_confidence,ChIJIQY0uS6flVQRyy_aVYyl960,Sakura Noodle House,45.4244724,-122.5154037,distance=10792.0km>5.0km
340362617,resolved,ChIJwytxFlFhvTMR8MgvULxt_XI,Rockpoint,14.1758695,121.178287,
340373424,resolved,ChIJa1C2AseplzMRKvirVi44lMg,Jollibee,14.8573538,121.055598,
340753740,resolved,ChIJpyAtU9rLlzMRCnFtzHcwlYc,Air Juan Seaplane Terminal,14.5561033,120.9794878,
340839771,resolved,ChIJAQAAAFDtljMR1Lidu3cGsIM,Cafe Mesa,15.1815536,120.5217491,
340846040,resolved,ChIJRY3JpFvtljMRZc2y6p9Ncz0,Clark Lomi House,15.1814416,120.5431274,
344118461,low_confidence,ChIJBVks6EAwqTMR-CZioPp_OYE,Malatan-og Falls Viewing Deck,10.5875115,123.2321405,distance=8.9km>5.0km
345093283,resolved,ChIJOZVaKgnJlzMRpwhu62nN9rs,KFC,14.5586086,121.0189334,
345239295,resolved,ChIJVxMboUW2lzMR3TOxa31n3F8,Hotel Sogo - Quezon Ave.,14.6331964,121.0204027,
345565586,low_confidence,ChIJz946ft9dvTMREH3z7pauY70,Fule Malvar Ancestral Mansion,14.0715844,121.322519,name_similarity=42
346647477,resolved,ChIJ8VW5LjVGvTMRppgZLZJbFYI,Jollibee,13.9284843,121.4251965,
346677464,resolved,ChIJ3aOq2ltLvTMRDVeqXGPLA38,McDonald's,13.9364544,121.6132923,
346677564,resolved,ChIJYW544BFLvTMRxNTs77w5Fe0,Jollibee,13.9339351,121.6144499,
346678733,resolved,ChIJIf1vFVtLvTMRubVqjb8zbQc,Hacienda Inn Restaurant - Lucena,13.9332572,121.6127367,
347279285,resolved,ChIJvVXrM0TIlzMRSZUicDpgge4,Pizza Hut,14.5740839,121.0480122,
347279289,resolved,ChIJv5tuzU7IlzMRwV_PTtsLe3U,McDonald's,14.5758787,121.0413108,
348177409,resolved,ChIJJWVUCz3jlzMRwApBF8M2WWg,Trader Mega Inn Hotel,14.2713296,121.4212106,
349088654,resolved,ChIJbznDKmZSvTMRrmsGo45qLUc,Nawawalang Paraiso,14.0484289,121.5709837,
351992911,low_confidence,ChIJXR0AAAO2lzMRHWSA3xAbPCY,Hotshots Flame Grilled Burgers,14.6110296,120.9962387,distance=5.3km>5.0km
353705786,resolved,ChIJ8TcJi8tcvTMRlb6SWUxnBA8,G See Restaurant and Grill,14.0685777,121.3257028,
354321169,resolved,ChIJDy81JhDJlzMREWHWp06Y_Yw,Greenbelt 3 Cinemas,14.5516157,121.0215699,
355114209,resolved,ChIJP3JvYuaYqTMR3BAk24mB1PU,"My Greek Taverna, Best Greek Mediterranean Restaurant, Cebu",10.3440849,123.909968,
355114239,resolved,ChIJPVZ8lGmZqTMRc_GRQWzfAxA,The Coffee Bean & Tea Leaf Garden Row,10.328996,123.9063217,
355114348,resolved,ChIJcUiM3RGZqTMR0J7TddQEsrw,Prince Court,10.3197805,123.9184529,
355114445,resolved,ChIJ-7wSHgCZqTMRJq7Em5cmieU,Jollibee - Mandaue Causeway Drive-Thru,10.3267346,123.9454342,
355114470,low_confidence,ChIJT9tjiEbOlzMRMS6OsKxzT1Y,Sangelec Travellers Inn,14.4648871,121.0190912,distance=559.0km>5.0km
355114472,resolved,ChIJ0fh6J1qZqTMRaSGIajNZlgk,Café Laguna,10.3182759,123.9053489,
355114474,resolved,ChIJK9kRg5WZqTMRtY-sAF53KxY,Jollibee,10.3100611,123.9499804,
355114491,resolved,ChIJq9Asiz6ZqTMRfXN_5KPnlnw,Starbucks,10.3193737,123.905265,
355114551,resolved,ChIJETY7qNmZqTMR8x86qhkmF0A,Julie's Bakeshop,10.2968935,123.9503575,
355114578,resolved,ChIJgV6xOfiWqTMR1EDdhFuWOUI,Kaishu Japanese Restaurant,10.3132379,124.0237177,
355114591,low_confidence,ChIJY9ON6u-ZqTMRzGNzTzA7ams,The Original AA BBQ,10.3045002,123.9602614,name_similarity=53
355787601,resolved,ChIJQ0FTAwA9pTMRwBQoTUcYg1k,Grotto beach,11.9684458,121.9188495,
355816681,low_confidence,ChIJnQRNdZw-pTMRjpvRD3wdOB0,Nagisa Japanese Restaurant,11.9488808,121.9312435,name_similarity=56
355816790,resolved,ChIJiW75Y4Q_pTMR8VQrdgjVLF4,Congas Bar & Restaurant,11.9491942,121.9312813,
355816806,resolved,ChIJ9_lZZpo-pTMR5PvE1U4cllo,Asya Premier Suites,11.9439893,121.9341766,
356668492,resolved,ChIJ8UQUuxC3lzMRTQtlfpOGpbQ,Starbucks 74 West Avenue Drive Thru,14.6452169,121.0278894,
357716324,resolved,ChIJt03Tv2JTljMRE7g3J7AKwJo,RedDoorz @ EL Highway Hotel Bulacan,14.8758125,120.8628125,
357716500,low_confidence,ChIJtQg80JR3vTMRIJvbfS41Ukk,Bulalo Capital 2,14.0914822,120.9117756,distance=93.7km>5.0km
357716516,resolved,ChIJp9R1rGRTljMRRsk0LObssOs,Chooks To Go,14.8715798,120.8616265,
357716634,resolved,ChIJLTX7vRsAlzMRUK7oGAeRZfI,Monrovia Court,14.9362547,120.8791333,
357716671,resolved,ChIJcd5dfcxVljMRt8PnOS8Xs8o,Green Haven Apartelle,14.9082477,120.8696901,
357716726,resolved,ChIJby5A-DhVljMRkk5Evr7Ryhc,"Nakama Restaurant, Coffee Shop & Grill",14.9513531,120.88456,
357727648,resolved,ChIJN1pb5BDJlzMR1ixRyZLO89s,Uptown Parksuites Tower 2,14.5589394,121.0537019,
357727774,resolved,ChIJLw-Pdte3lzMRnCdxaD561IM,Burger King - Ortigas Roosevelt (Drive Thru),14.6043079,121.0438849,
357733258,resolved,ChIJ0XRjogrJlzMRrtxyFiZZnKc,Shakey's Makati Avenue,14.5657562,121.0301363,
357733656,resolved,ChIJh9K7YEvIlzMR1pTCPKXocoo,Abc Car Rentals & Tourist Transport,14.577177,121.035025,
357750724,resolved,ChIJRWxR0D08pTMR52qMBQ1BHEw,Bolabog Beach Resort,11.9681914,121.9271548,
358210167,resolved,ChIJC1se4Nf3vDMRkpKZO8Hlw24,Mount Malasimbo,13.4363889,120.8958333,
358256558,resolved,ChIJKbYo-Bk_pTMRPlXkA5hSdnc,Sanctuary Cafe,11.9529757,121.9313092,
358646656,resolved,ChIJqXA3oG5MvTMRD52tT82kmSE,Hermano Pule Monument,13.9631678,121.565679,
358669797,resolved,ChIJLTNIuERLvTMRkqKHJAa4fbg,Buddy's Pizza,13.9312171,121.6125323,
359363786,resolved,ChIJEUZlAoM-pTMRS71Vsc6x7Zc,Helios Spa,11.9493785,121.9385272,
360103392,resolved,ChIJBY9WmJgYljMRVfD5XGSqw5A,Bataan Death March Marker KM 6,14.4496872,120.520559,
360103398,resolved,ChIJCRy4UdIYljMRsZjtCkjKxzc,Bataan Death March Marker KM 0,14.4359035,120.4910515,
360103404,resolved,ChIJBRSu0cYYljMRqflHZcvi5TA,Bataan Death March Marker KM 2,14.4462631,120.5014196,
360105364,resolved,ChIJg1IP7SsZljMRHFBue1VpCyM,BATAAN DEATH MARCH MARKER 3KM,14.4481694,120.5118149,
360105369,resolved,ChIJCRy4UdIYljMRsZjtCkjKxzc,Bataan Death March Marker KM 0,14.4359035,120.4910515,
360107591,resolved,ChIJCRy4UdIYljMRsZjtCkjKxzc,Bataan Death March Marker KM 0,14.4359035,120.4910515,
360107604,resolved,ChIJCRy4UdIYljMRsZjtCkjKxzc,Bataan Death March Marker KM 0,14.4359035,120.4910515,
360200274,resolved,ChIJD4cKtYDZlzMRbDKlOuoOdK0,Jollibee,14.329205,121.0886723,
360203292,resolved,ChIJl7-tVUzXlzMRcOL-qrG-lVU,Shakey's Pizza Parlor,14.347602,121.064894,
364220659,resolved,ChIJdaGIRy_TjzMRC53BE6AgjvQ,Hanging Coffins of Sagada,17.0809865,120.9057343,
364228346,resolved,ChIJE9AOCCS2kTMRmhGXvQknULI,Former Highest Point: Philippine Highway System,16.640517,120.7752327,
364629518,zero_results,,,,,ZERO_RESULTS
364630111,resolved,ChIJmUidCEVivTMR-W6oxyR7djI,Jollibee,14.2280494,121.1392672,
364918954,resolved,ChIJT3hqIwHjlzMRJnoDITG4Y6s,Grove Nature Garden Inn Hotel & Resort,14.2651899,121.4020412,
365484992,resolved,ChIJM1FBSLO3lzMRuSGg-xz1R1I,The Red Crab - Tomas Morato,14.6300036,121.0340404,
365504763,resolved,ChIJWVjR5LO3lzMRBI0YRL_A5Ng,Baliwag Lechon Manok,14.628788,121.038753,
367417796,resolved,ChIJnx-KK2pdvTMRuR0xPoDdkCE,Chowking San Pablo Junction,14.0710614,121.3074122,
369910532,low_confidence,ChIJqxJqPQz1VDIROnUSlt_ob3Q,Bukids Resort,8.3025834,123.5106136,distance=793.3km>5.0km
369910539,resolved,ChIJ_R8GZkSZqTMRD2I3b87DweY,Queensland Manor,10.3088388,123.901315,
369910643,resolved,ChIJ3xxnC_mYqTMRvz_FffvDrUs,Chowking,10.3395863,123.9249394,
369910676,resolved,ChIJVT6VfmaZqTMR5M_f2n1dERE,Lighthouse Restaurant,10.3109572,123.9027715,
369910680,resolved,ChIJZzhRq2mZqTMRzLQfwXs1QY8,White Gold House,10.307837,123.910502,
369910681,resolved,ChIJmwmv3m6ZqTMRuLa03K4-u3g,CHOWKING CEBU JONES,10.3067893,123.8944598,
369910833,resolved,ChIJ3SN_1EWZqTMRnL0puyC4xH0,Jollibee,10.3111621,123.8995341,
369910866,resolved,ChIJga5hJyKZqTMRyJB_4vhl4cs,Coffee Dream Cafe,10.329975,123.906247,
369918619,resolved,ChIJUZrBgaPJlzMRs7pbbZMizcQ,McDonald's,14.5719034,121.0160156,
370965013,resolved,ChIJ21Z_4XRt-TIRteJoS4Y2BAw,Coffee at Yellow Hauz,7.0757824,125.6066351,
370965233,resolved,ChIJL3W74oFt-TIRk25uoJbdwMg,Colasas BBQ,7.062728399999999,125.6096002,
370965368,resolved,ChIJqfFN-J9y-TIR8HIjOUzXji0,Coco's South Bistro,7.0602756,125.5878228,
370965626,resolved,ChIJGwD-QABt-TIRpoar8u3zBeg,Jollibee Magsaysay Acacia,7.0738967,125.612303,
370965628,resolved,ChIJd6A1O3dt-TIRAgM4hrGM_0M,KFC,7.0698262,125.6051365,
370965636,low_confidence,ChIJK1mCSHDDwoARp8waesJoWZE,Amara Cafe & Restaurant,34.1447517,-118.1490544,distance=11911.0km>5.0km
370965744,resolved,ChIJtbg9eXht-TIRaOP_n9_37R0,Jollibee Davao Bolton,7.066188899999999,125.6093282,
370965801,resolved,ChIJZcmxjd5z-TIRFqaWxyr1ASw,Chowking Shell Quimpo Drive-Thru,7.0550354,125.599253,
370965807,resolved,ChIJse1XSCht-TIRxwshPI_ln1w,Chowking,7.085385,125.6112334,
370965858,resolved,ChIJf6XeSVds-TIR_YfbqStZO1Q,Fly O Grill,7.1023236,125.6145389,
370995740,low_confidence,ChIJqeRZzKZr-TIRldC9KRI1tS4,Circles 'n Squares,7.1925093,125.6436226,distance=11.4km>5.0km
370997999,resolved,ChIJWeXqGrFt-TIRvb2TmyZtCRo,Panadero Bakeshop Cabaguio,7.0873579,125.6239948,
370998384,resolved,ChIJN8Kie5pt-TIRFdiMMcvoEdU,Panadero Bakeshop Piape,7.069570799999999,125.6200924,
371267837,resolved,ChIJVVVVVVUR-TIRuJmkCr4h7ug,Regency Inn | Hotel & Restaurant | Supply City,7.0746701,125.613987,
372156103,resolved,ChIJ0T08KxH4vDMRuQYlpJw-2Fk,Ponderosa Golf and Country Club,13.47909,120.91297,
372178504,low_confidence,ChIJzcQqhyWQ2IAR3cgvOFmmhpw,Estero Beach Hotel/Resort,31.777235,-116.6166687,distance=12083.8km>5.0km
372516325,resolved,ChIJi3ZsFH7yljMRhr7pBTRF514,Angeles International Travel Center,15.1652375,120.5750804,
372765572,resolved,ChIJocBCMdislzMRGxJSAl-mO94,Jollibee-Shell NLEX Balagtas,14.8310158,120.9085694,
378659787,resolved,ChIJcYv1QwDZlzMR4rt3w3Bq0Hk,Wendy's - Biñan Laguna,14.3305076,121.0871364,
378681164,low_confidence,ChIJhzdSGPbW2IgRGkem18eSoDs,Palm Beach,26.7056206,-80.0364297,distance=14966.0km>5.0km
378716460,resolved,ChIJNymKNs9cvTMRMU3OQSUDmt0,ClyDenJosh Grill & Restaurant,14.0745242,121.3264993,
378717421,low_confidence,ChIJs-NwfmU574gROmbcppdM2FA,Lake City,30.1893883,-82.6394016,distance=14463.5km>5.0km
378733964,resolved,ChIJ6xqueSjYlzMRkCVDSmnakgw,McDonald's,14.2965212,121.0816771,
380413848,resolved,ChIJl0R7OQCZqTMRIiCWovMw74E,Cafe Cesario - The Bellavista Hotel,10.3216823,123.9677794,
380438522,resolved,ChIJR7RdaHGZqTMRrr7-nd3I3UY,Boosog Restaurant,10.3122801,123.8949124,
382041629,resolved,ChIJlcdj5ThevTMRqSQD0JtNcgk,Tenorio's Bakery,14.1815417,121.2834404,
382059223,resolved,ChIJ3eMI0b5gvTMRv-DzIdzyFr8,Serendipity Tea Bar,14.1696527,121.2442784,
382803333,resolved,ChIJvcS22LVgvTMRblsQj0zm1s8,UPLB Oblation,14.1650555,121.241559,
382831946,zero_results,,,,,ZERO_RESULTS
383395999,resolved,ChIJbYiXFiDJlzMR5U82oEk6k5g,Jollibee,14.5653579,121.0454604,
383398047,resolved,ChIJ1xWZ5lnIlzMRdZrvOJvd-wk,Andok's,14.5640736,121.0453689,
383593126,resolved,ChIJaey-8KHJlzMRDoPHIw1eYPk,Jollibee Buendia- Taft Pasay,14.5539031,120.9976298,
384099189,resolved,ChIJuZmuGWmhkTMRTUvas9DNpaA,Inn Rocio Restaurant,16.4073334,120.5947266,
384119717,resolved,ChIJv2t243OhkTMR3pLWeF5IK7k,Our Lady of Lourdes Grotto,16.4105612,120.5813775,
384142750,resolved,ChIJd8MMYQGkkTMRRot_a8URm-M,Good Shepherd Convent,16.4217963,120.6255996,
384843448,resolved,ChIJd1F0s3N3vTMRtysNmMdmAyw,Bali Seafoods Paluto Restaurant,14.1017293,120.9507369,
384843453,resolved,ChIJIxi_qf53vTMRPLJcmEcqR4w,Buon Giorno Caffe & Bistro The Cliffhouse,14.1015816,120.9497172,
384843455,low_confidence,ChIJizDwoDTQlzMRfEzcPV7vFsU,Café Breton,14.4219192,121.0344326,distance=36.7km>5.0km
384843462,resolved,ChIJ1Sv2rsd5vTMRLIKejrunEuw,Domicillo Design Hotel,14.1368995,120.9557571,
384843465,low_confidence,ChIJyco9vrV5vTMRe7m6Hhd8gK4,Figaro Coffee - Acienda Silang,14.1835855,120.9585403,distance=9.0km>5.0km
384843468,resolved,ChIJ4SlHtXN3vTMRKGrcny-ZaIE,Fire Lake Grill,14.102307,120.9496949,
384843486,low_confidence,ChIJuTWmR7-BvTMRX3JchqzY-BM,THE PALPITATE CAFE,14.2633734,120.8766712,distance=19.6km>5.0km
384843698,resolved,ChIJfXDNiWN3vTMRXHhMpzcKYPE,JT's Manukan Tagaytay,14.1157844,120.9626908,
384843702,resolved,ChIJscwODXR3vTMReT-mDeGIEzU,Hortz Hotels and Resorts Tagaytay,14.0992358,120.9305587,
384843708,resolved,ChIJ72tyeO95vTMRQXM8l0a-EYI,Discovery Country Suites Tagaytay,14.1267309,120.9732513,
384843714,resolved,ChIJaYbgrMp3vTMRYP9iLUB9kJ0,Casa Dolores,14.1048201,120.9417749,
384843716,resolved,ChIJDRVcfQp3vTMRFVtor5re03g,Giligan's,14.0971147,120.942413,
384843725,resolved,ChIJ-aZXrdR5vTMR0VS2lndEDYI,"Nurture Wellness Village, Tagaytay",14.1249519,120.9418207,
384843730,resolved,ChIJz9Iqgb53vTMRkV_-erLqYZ0,Mer-Ben Tapsilogan,14.0992423,120.923755,
384843733,resolved,ChIJxdjDGWF3vTMRHSkECft1TxI,Pamana- Tsokolateria Restaurant - Tagaytay,14.112036,120.9592584,
384843761,low_confidence,ChIJTbUmLPTTlzMR9IJGDzhr0NI,Tirona Ancestral House,14.4280327,120.9364632,distance=35.1km>5.0km
384843762,resolved,ChIJ-3igU2B3vTMRPy5SFrVMTec,The Over Look Inn,14.1144965,120.961724,
384843766,resolved,ChIJHZMO7Cp3vTMRyxY61Ck8kYE,Starbucks Reserve Hiraya,14.1020435,120.952113,
384843767,low_confidence,ChIJ2d0z7Sd1K4cR3T7I6W7HVXE,Zum Treffpunkt,33.615568,-111.9092584,distance=12297.5km>5.0km
384843769,resolved,ChIJbbWOEgB5vTMR5OLa2eKY0Wg,Vista de lago,14.1249463,120.9699582,
384843794,low_confidence,ChIJp1nrEJJmeGkRj-28NjBwgAM,The Downunder Bar,-16.9212842,145.7754019,distance=4396.1km>5.0km
384843795,low_confidence,ChIJ629TG4hxljMRIEIPRxeOQRM,Kon-Tiki Sports Bar and Restaurant,14.8243432,120.2869062,distance=107.6km>5.0km
384843798,low_confidence,ChIJnVTndY7VlzMRK9Y0J51rD2o,Original Mile Hi Diner,14.2916051,120.9585343,distance=21.0km>5.0km
385768095,low_confidence,ChIJLRAq4yBxljMRqKIrOLqu91s,Samba Bluewater Resort,14.8373443,120.2702586,name_similarity=36
385768097,resolved,ChIJFea3-RJxljMRA9dJyi0no90,Meat Plus Cafe,14.8180182,120.2836582,
391723442,resolved,ChIJ53WIWrZgvTMROLqYlbxg1lI,Pegaraw,14.1655184,121.2395808,
391726966,resolved,ChIJM_3RaMlcvTMRERzVtbhoqeA,RAMOS BAKERY,14.0709202,121.3279855,
391727061,resolved,ChIJ5cU7V8lcvTMRhn8CtrFmXvk,Kalahi Bakery since 1942,14.0706045,121.326891,
393731191,resolved,ChIJaQ-ova33ljMRRlYTMrb_Vug,BistroVerde Bacolor,15.0007236,120.6436766,
393731206,resolved,ChIJY6ZKkq3QlTMRXZa75VgdeoM,canoe beach resort,14.9203653,120.0624618,
393731269,resolved,ChIJXWuDhnK2lzMRVn8xVCXXHec,Red Ribbon | Retiro,14.6312239,120.9986586,
393731301,low_confidence,ChIJH4dEsM8EdkgRandd6RPxN5o,Old Shades,51.5064729,-0.1269736,distance=10653.6km>5.0km
393731367,resolved,ChIJubGwGRi3lzMRMl7inVQ1i5c,Lola Idang's Original Pancit Malabon Visayas Avenue Branch,14.6624593,121.044345,
393731442,resolved,ChIJ4c1rabLQlTMRELsztLyfdiI,Ok Lah Beach Resort,14.9220511,120.0626116,
393731522,low_confidence,ChIJVSfkudvy_zIRShjVL7xMe6M,Big Flat Bread Cagayan De Oro,8.481784,124.6487302,name_similarity=33
393731531,low_confidence,ChIJHdbQabt73IARGgm2AxM5vx8,De Luz Family Housing - Camp Pendleton,33.3243408,-117.3080427,distance=11907.2km>5.0km
393731557,resolved,ChIJTViFrRHIlzMRF4e501E3WvI,North Park Noodles - Ortigas Home Depot,14.5848632,121.0657411,
393731655,resolved,ChIJo4_Gu15pADMRO8sPEnpPvt0,J&A Fishpen,9.1327289,124.7915685,
393731663,low_confidence,ChIJkYCDeZfJlzMRnJGODFGHyco,Pizzetta,14.5637426,121.0310994,distance=9.5km>5.0km
393731689,low_confidence,ChIJSwhfwi23lzMRelyt2mBJoDU,007 Headlight Retrofit,14.651258,121.0157256,distance=6.6km>5.0km
393731778,resolved,ChIJ48M1yBP3ljMRRukFlGGBYOo,Nathaniel's Bakeshop,15.0416334,120.684637,
393731926,resolved,ChIJGUs8LhZpvTMRGPJE_D1uWyk,Microtel by Wyndham Batangas,14.137289,121.1338371,
393732118,low_confidence,ChIJd4hpSwB_vTMRs4GuAEsaxeQ,Juanitos Buko Station,14.2150574,120.9681325,distance=5.4km>5.0km
393732138,low_confidence,ChIJR58WtdpwljMRPk5ew-lbDvs,Roast Chicken & Grill 99 Hanging Cafe',14.8500207,120.264224,distance=46.8km>5.0km
393732207,resolved,ChIJn5m16d63lzMR9w5uFENVTpE,18 Missouri Events Place,14.6036416,121.0522613,
394570997,resolved,ChIJKxfU4IDJlzMRQz1ljYsyNjY,Starbucks Ayala North Exchange,14.5598258,121.0153629,
394571059,resolved,ChIJKxfU4IDJlzMRQz1ljYsyNjY,Starbucks Ayala North Exchange,14.5598258,121.0153629,
394571083,resolved,ChIJEwwgD0TJlzMRSe_FR9OSc-Y,YAKINIKU A5 TOKU - Little Tokyo,14.5537791,121.0143474,
394807633,resolved,ChIJiygR7CVJqjMRN6KOwTPZm78,Philippine Tarsier Sanctuary,9.6907827,123.9526892,
397597130,resolved,ChIJJ0BqOXfJlzMRPVe4b81uLeo,Swagat indian cuisine,14.5516053,121.0157176,
402689345,resolved,ChIJoVQ6niB6vTMRlKSehuWNPBg,Ming's Garden,14.1459068,120.9919535,
404110951,resolved,ChIJsQVRmc7RlzMR8zEV_kdaXIM,Starbucks Madrigal Avenue Alabang,14.4244879,121.0273949,
404110970,resolved,ChIJP3U_D8HRlzMRXClvy0uOKW4,Jollibee,14.4257772,121.0278819,
404110974,resolved,ChIJqehYPNvRlzMRDUgrgZIGod8,Panda Express - Festival Mall,14.4179806,121.04126,
404111032,resolved,ChIJ3zkCMizOlzMRlcTJY5yggbc,Tropical Hut Foodmart,14.4454008,121.0286504,
404111040,resolved,ChIJaxBGIyzOlzMRzdiXqWYgCpI,"Starbucks President’s Ave., BF Homes",14.4449416,121.0285342,
404111053,resolved,ChIJA0hQOSzOlzMRS52szi8qNGc,Conti's Bakeshop & Restaurant - BF Homes,14.4450038,121.0289662,
408745853,resolved,ChIJJ4iBUExivTMRgoK9SgZ7GZU,Aviles Bulalo Nanay Leoning's Restaurant,14.2187458,121.140244,
408745854,resolved,ChIJz2hhuau3lzMRqgML5ElmykQ,Melo's Restaurant,14.6407043,121.0372381,
408764843,resolved,ChIJqxfyYbvIjjMRSk4ytfXhGeA,JAVA HOTEL,18.2094899,120.6025997,
408774917,resolved,ChIJ0-BStkG3lzMR4y2fjtHRpEA,Mason's Cafe,14.639071,121.074281,
408774920,resolved,ChIJKznqjIG3lzMRGvSWkr3cYdI,Army Navy Burger + Burrito,14.6370602,121.0741132,
408774958,resolved,ChIJ903xun63lzMRm94eLsxCwEA,Turks,14.6427244,121.0744702,
408774965,resolved,ChIJxRRAfwC3lzMRsuLkCQy84B0,Cravings Dessert Bar and Events Place,14.6506619,121.0563977,
408774978,resolved,ChIJ7WIx7Xy3lzMRtGmiLlwx1Pg,Tapa King Katipunan,14.6467611,121.0750946,
408774983,resolved,ChIJo6oGIJG3lzMRlO_UHoXN3Ro,Seattle's Best Coffee - World Citi,14.627197,121.063374,
408775002,resolved,ChIJNz_NUH-3lzMR1S2247nHz8A,Sweet Inspirations Katipunan,14.638421,121.0741806,
408775014,resolved,ChIJQ5IwDTC3lzMRpdkPrWf_XgQ,Yellow Cab Pizza Co.,14.6673,121.073942,
409507126,resolved,ChIJAQAAAEB8vTMRdyV_dDk64K4,Chateau Hestia,14.1451625,120.974376,
409507135,resolved,ChIJWZDGYPB5vTMR3H50irn5HQQ,Amoroma Bed & Breakfast,14.1263657,120.9790551,
409507155,resolved,ChIJR_CdUWB3vTMRbFM5uMAae9c,The Windy Ridge Hotel,14.1159487,120.9628677,
409507630,low_confidence,ChIJOc0JZw_JlzMRxCk_tyro8bA,"Senator Benigno ""Ninoy"" Aquino Monument - Makati City",14.5567009,121.0215716,distance=49.5km>5.0km
409515089,resolved,ChIJh0WPRvF5vTMRvikEYh9xhSg,Rowena's Pasalubong Tagaytay,14.1338889,120.9836111,
410065654,low_confidence,ChIJQbXsDVdjqDMRr_ILQV51RRc,5R Pangpang Restaurant,11.1602079,123.8049679,distance=30.9km>5.0km
410082135,resolved,ChIJSTRNiP-xvTMRSGTd7rjAUmM,Casa Victorina,13.775641,120.651715,
410106053,resolved,ChIJZ-YuI6pt-TIRGuboMRZRxGA,Gerry's Abreeza Mall,7.091709,125.6122869,
410106111,resolved,ChIJfUfKvqFt-TIRFt0TIp9wnQY,Pizza Hut,7.0784492,125.6133292,
410138071,resolved,ChIJE3GF0msN-TIROWtkmqrj8vc,Merco,7.050801799999999,125.5410911,
410140827,resolved,ChIJxapyFcly-TIRO9br4WmLyjA,Felis Resort Complex,7.0403962,125.5724563,
410140869,resolved,ChIJj4NDBMly-TIR7wovi3YY47o,Pan De Pane Bakery Convenience,7.0413191,125.5735462,
410141273,resolved,ChIJ_____7Ny-TIRL3E2hNQLnho,Jade By The Sea Resto Bar,7.0412316,125.5779264,
410141344,resolved,ChIJw5ETmsBy-TIRvtp35ix6czA,Twin H,7.0425624,125.5840286,
410146547,resolved,ChIJueOMa3pt-TIR9v4QPHGeOn8,Metro Mercado,7.0676007,125.6024619,
410245780,low_confidence,ChIJKcQIkMLZlzMRLi09tSKmF-0,Saint Michael's College of Laguna,14.3248587,121.09305,distance=30.1km>5.0km
410400109,low_confidence,ChIJK3FxdaRt-TIRZA1rZf5XFYY,Ssamjang Korean Restaurant - Torres Branch,7.082299000000001,125.6098616,name_similarity=40
410400110,resolved,ChIJK3FxdaRt-TIRZA1rZf5XFYY,Ssamjang Korean Restaurant - Torres Branch,7.082299000000001,125.6098616,
410401116,resolved,ChIJFfOioTk-qTMRpLHzdjIzx0w,Lola Nitang's Inn & Restaurant,10.4811572,123.4199433,
410401147,resolved,ChIJberyvV0-qTMRqD20EikWhlQ,La Grotta Italian Restaurant,10.4904108,123.402391,
410401152,low_confidence,ChIJVavHrqAbrDMRHxOyeghWOe4,Lodging House rja,10.2072767,122.8479902,distance=69.3km>5.0km
410401158,low_confidence,ChIJF1KGh18_qTMRK4QxHkjAkck,"Barrio Fiesta San Carlos City, Negros Occidental",10.4906453,123.4090885,name_similarity=47
410401160,resolved,ChIJ5UHalkA-qTMRTrjDsZ2BOGA,Mom's Small Hotel and Restaurant,10.4864225,123.4150762,
410401184,resolved,ChIJXSha9js-qTMRwuXXLaYMs1g,AC Pension House,10.4838532,123.4224315,
410401190,resolved,ChIJT3ahzzg-qTMRXdtlq6iSbqE,YM Business Inn,10.4840594,123.4179251,
410401213,low_confidence,ChIJ9z65mwY1qTMRbio7MSolTWE,Nabukid Rock Mountain Resort,10.5047317,123.1068733,distance=17.1km>5.0km
410401218,resolved,ChIJA9JuYuA7qTMR4GcbMbZT7XA,Waddy's Place,10.522033,123.326508,
410401219,resolved,ChIJE3Alzd87qTMR4nPdxGuQJ1s,Jilla's at the Peak,10.5223331,123.3253488,
410401307,resolved,ChIJcfGFw887qTMRFMo0w_2Y578,Nabatang Peak Mountain Resort,10.521131,123.314838,
410402037,resolved,ChIJu_ZZlDds-TIR7R6lDW1vXrw,The Swiss Deli & Restaurant - Mamay,7.115999200000001,125.6288824,
410402060,resolved,ChIJD9iz3k96vTMREhQkhiVRNU0,"Shrine Of Our Lady, Mother Of Fair Love",14.1414992,121.0217062,
410402115,resolved,ChIJcd7jIP9t-TIR0_LTSZg67TQ,Yellow Cab Pizza Co.,7.101853299999999,125.6327386,
410402116,resolved,ChIJl7FtdABt-TIRdTgLtX_dZ9w,Merco,7.096323099999999,125.6205668,
410805284,low_confidence,ChIJAQAAud95vTMRmkC--MNLub0,VIEWPOINT By Cerilos est. 1992,14.0881128,120.9059802,name_similarity=56
410805287,low_confidence,ChIJy4_NWJd3vTMRSXJQIsrwTuo,JUDDIES Best view Bulalohan Tagaytay,14.0987592,120.9222827,name_similarity=55
410805289,resolved,ChIJVVWVUsZ3vTMRNzYgA6o4NqA,Swiss Chalet Townhomes,14.0950849,120.9158234,
410805290,zero_results,,,,,ZERO_RESULTS
410805300,resolved,ChIJta7hgnt3vTMRiQXlogr3Zz4,Belga Inn,14.113436,120.950174,
410808932,resolved,ChIJ4TJ31oJy-TIROoaz03qGK4o,Viajero's Inn,7.0578131,125.5990066,
410927140,low_confidence,ChIJk_XCaR24lzMRB7NKzIJ-awQ,Mocha Blends Espresso Coffee,14.6104537,121.0800179,distance=40.2km>5.0km
411219546,low_confidence,ChIJv12WmYlKzDERWRnoXaqIfZ0,Map Information Solutions Sdn Bhd,3.0678253,101.6920311,distance=2462.5km>5.0km
411227921,resolved,ChIJlQmubEd9vTMRvoY-1O7jfnU,Kanin Club,14.2485817,121.0638502,
411227923,low_confidence,ChIJNc4z8Ji7woARLgcH8sgKNQE,Poquito Más,34.0432465,-118.4316858,distance=11748.5km>5.0km
411227930,resolved,ChIJFdPOEEd9vTMRJeXRf6Do5LU,Pancake House - Paseo Outlets,14.2491748,121.0638882,
411752378,resolved,ChIJCVFkwMxcvTMRKAX2y_DgKlQ,RIZALINA BAKERY,14.0675115,121.3247034,
412373894,low_confidence,ChIJn_axRQ6v3BQRnSm3E_9VZ3A,Long Beach Alanya,36.5993361,31.8060495,distance=8790.4km>5.0km
412373896,resolved,ChIJbaR0VUwliTMRUjeWO1pS4vE,Bangui Windmills,18.5285706,120.7181102,
413986511,resolved,ChIJkfObJbCQqTMR2oBW3BXhW_g,AOSMEC Square Hotel,10.2787703,123.9864092,
413986512,resolved,ChIJs6Q0uGyZqTMRRX9rjLeMKvk,Andok's,10.3142648,123.9150346,
413986521,low_confidence,ChIJ_YKydFidqTMRl-etpAMlsng,Bernadette's Lechon,10.2426369,123.7969494,distance=14.9km>5.0km
413986522,low_confidence,ChIJr_jTaG-2uIkR5t56G3OJF08,Boardwalk Plaza Hotel,38.7188568,-75.0766864,distance=14217.3km>5.0km
413986532,resolved,ChIJCak6KeKbqTMRaViYzCEwwmU,Chowking - Sto. Niño,10.2946512,123.9022817,
413986537,resolved,ChIJkaNRgeKbqTMR5rC-rVAhE0o,Goldilocks,10.296745,123.899412,
413986542,resolved,ChIJb5NS5E6XqTMRXdXqpTKPBU8,Hiros Apartelle,10.2916196,123.9902113,
413986543,low_confidence,ChIJGX1fdjnlrjMR_rCiJj7eNVQ,Jo’s Chicken Inato,10.7123176,122.5515917,distance=155.9km>5.0km
413986548,resolved,ChIJaYfNArWQqTMRuRko4v-ndYA,Julie's Bakeshop,10.2902257,123.9983846,
413986549,resolved,ChIJH-bpYASZqTMRI1fzmacdHB0,Julie's Bakeshop,10.3250583,123.9229961,
413986550,resolved,ChIJuQqqihaZqTMRHAC7KHtJhGI,Leona Cakes & Pastries,10.3210401,123.9107481,
413986554,resolved,ChIJqUDzMamQqTMRBodO8tSHKyc,Onyx Resort and Casino,10.2813255,123.9809473,
413986567,low_confidence,ChIJi-QZ9C-eLIgRGecFpUhXoXc,Mikado Japanese Restaurant,43.32607,-79.7956918,distance=13584.3km>5.0km
415168726,resolved,ChIJ7fvQs9i2lzMRXD8wDI5GmK4,Pan de Manila Mindanao Avenue,14.6710822,121.0325854,
415552808,resolved,ChIJC0ZvSwDHlzMRr8nq090IENQ,Mang Inasal PeaceMall Taytay,14.5432003,121.1272522,
415557509,resolved,ChIJqSbAcMbGlzMR_uqiyII3oEg,Balaw Balaw Restaurant and Art Gallery,14.5274358,121.1576875,
416825222,resolved,ChIJvbCJFju4lzMRNw9nTlPBFq0,Rizza Panciteria,14.6218925,121.0924223,
417253542,resolved,ChIJv-YMX_r6lzMRMN15NlaqfFs,Exotik Restaurant,14.3394665,121.4827381,
417322069,resolved,ChIJ12sCaTLOlzMRtToDqVb8nj8,Goldilocks - BF Homes,14.4518798,121.0298691,
417322074,low_confidence,ChIJc_7_egCvXYYRXLoLT8pFQjs,TIO PEDRO,29.0370984,-98.5754572,distance=13575.3km>5.0km
417322076,resolved,ChIJpdZjs93PlzMR-iFeJv3NJNw,Pizza Hut,14.4446807,121.0288439,
417322078,resolved,ChIJQU0Cm0bOlzMR5zTYu4Ng-aU,Red Ribbon - Dr. A. Santos Avenue,14.4651992,121.0183461,
418172403,resolved,ChIJK7KtaSHGjjMRsCZDz6Pm_m0,McDonald's,18.1945104,120.5927459,
418172407,resolved,ChIJg7y-OvO_jjMRkj4i_UGTw2c,Herencia Cafe,18.0623897,120.52019,
418172418,resolved,ChIJBxlnijrGjjMRSHxuhD7sgYI,Hap Chan - Laoag Airport Road,18.1865047,120.586833,
418172423,resolved,ChIJFWbmA-4ZjjMRttPtjS14bdo,McDonald's,17.1909205,120.4475125,
418172446,resolved,ChIJWe7p4-IZjjMRHUAqDAy2H1c,Jollibee Candon Highway,17.1837555,120.4453994,
418606693,resolved,ChIJ52dN6Q7JlzMRnk29tM7rdxY,Chowking (V.A. Rufino-Dela Rosa),14.5569175,121.0182343,
418606695,resolved,ChIJacqYAKrJlzMRha2_WRquW3o,Jollibee,14.5624632,121.0280817,
418993739,resolved,ChIJHWOVfmxcvTMRDENrfxQAOoI,Starlake Resort and Hotel(OFFICIAL),14.122914,121.337703,
418998373,resolved,ChIJgaFpaB24lzMRr-VK1YNFeVI,Eastwood Cyber & Fashion Mall,14.6078835,121.0802809,
419018045,resolved,ChIJ____Xs9jvTMRVMP0Vyjvlio,Goldilocks Bakeshop,14.203425,121.1551094,
419018047,resolved,ChIJw0InRbxjvTMRPXIuTOPSJok,Jollibee Calamba Crossing,14.2062284,121.1551641,
419484535,resolved,ChIJKxfU4IDJlzMRQz1ljYsyNjY,Starbucks Ayala North Exchange,14.5598258,121.0153629,
419725029,resolved,ChIJGQY4MgDJlzMRdEhjjA07zew,24 Chicken M1 Tower,14.5617891,121.0218365,
419725030,resolved,ChIJDRqxbgbJlzMR3Sc8ddbJsEA,Poochini's,14.5585981,121.0236826,
419725031,resolved,ChIJhXfqPQDJlzMRiUs7aMTegwE,Yoshinoya Glorietta 1,14.5513598,121.0244613,
419761101,resolved,ChIJRfbQCEHJlzMRqqQuk5NYvsU,Bonchon Chicken - Valero One Central,14.5603771,121.0181274,
419816984,resolved,ChIJX0Imt83JlzMRulGn95jCJDc,Starbucks The Columns,14.5617761,121.0166966,
419817040,resolved,ChIJC1asHADJlzMRLwnroMc1qQY,Dingfeng Travel and Tours Corp. 鼎丰国际旅行社,14.561087,121.021017,
419822582,resolved,ChIJdxoDURvJlzMRLo5qt6Rs-yM,Bo's Coffee (Glorietta 5),14.5516667,121.0269444,
420066488,resolved,ChIJsTiBAKpt-TIRW79QhzsXbtM,We R Inn Hotel,7.0770453,125.6125422,
420896617,resolved,ChIJ2_fPVZty-TIRWeV8Whx6udI,Tata Benito's,7.055203,125.598318,
420896649,low_confidence,ChIJo92lZKqx-TIRAHhnLpZbTic,Basti's Cafe,6.7409431,125.3560825,distance=45.6km>5.0km
420930491,resolved,ChIJ796plqFt-TIRRa1pp8vqDn8,G CINEMA,7.07789,125.613963,
420931584,resolved,ChIJY1gs5Gdz-TIRdsDCcYWWoxs,SM Cinema - SM City Davao,7.0504256,125.5885651,
421037443,resolved,ChIJT7timgpt-TIRJh2_1WJJmoU,Kopi lah Roti,7.0784704,125.6089103,
421038219,low_confidence,ChIJa6Cl3KO3lzMRUgFholldWr0,Lorie's Cafe,14.6392889,121.0615009,distance=976.2km>5.0km
421046100,resolved,ChIJl--_S5tt-TIRS057w50drzE,Paterno's,7.067460100000001,125.6163715,
421047489,resolved,ChIJO--NY5xt-TIR3WiK0oQFmBQ,C5 Dormitel,7.07038,125.6139042,
421159379,resolved,ChIJ_Z33NJ9ktTMRYacF-wcRbEg,Microtel by Wyndham Puerto Princesa,9.7909445,118.7720599,
421268871,resolved,ChIJg3_HwZht-TIRWXKYrmRJ_KI,New Asia Restaurant,7.0746226,125.6133246,
421277470,resolved,ChIJjaloyKZt-TIRffLmcEfY83E,Urban Club,7.0813953,125.613542,
421722151,resolved,ChIJfQ9K8ofJlzMRvaL6bI_DZY0,Starbucks Oriental Gardens,14.5589483,121.0122273,
421749829,resolved,ChIJ_0uBVwnJlzMR73zuzcYvTKs,North Park Noodles - Convergys,14.559544,121.016466,
421749835,resolved,ChIJC8d-NSvKlzMRN741NAKJtjo,Max's Restaurant - Malate,14.5691667,120.9833333,
421749843,resolved,ChIJOTRdMLnJlzMRm-IezfWh5fA,Jollibee,14.5594263,121.016114,
421972454,resolved,ChIJK85TaZO3lzMRyUK60cCyEXQ,Chowking P. Tuazon,14.621043,121.06333,
422442069,resolved,ChIJAy8PPfLIlzMR9wpigqrWnAM,Figaro Coffee - Bonifacio High Street,14.5500634,121.0518466,
422462013,resolved,ChIJc_vX266zlzMR7QP3NPON-sY,Jollibee - Aliw Shopping Complex,14.7376893,120.9606349,
422464061,low_confidence,ChIJNVmdkuy2t4kRHPRhiiQjItY,The Tomb of the Unknown Soldier,38.8763796,-77.0721741,distance=13764.1km>5.0km
423734385,resolved,ChIJqR1rA5xt-TIRow9YVYvGoGo,Minute Burger,7.0681742,125.6171422,
423734405,resolved,ChIJsy9handt-TIRn_Pje4uWVOw,Taps - Duterte Branch,7.0696087,125.6050365,
423734485,resolved,ChIJE_13eHht-TIRWoIDA4EQU2A,Mandarin Tea Garden,7.065972299999999,125.6098377,
423734522,resolved,ChIJ58SepZlt-TIRcAGeB22ftM4,The Lounge,7.082347700000001,125.6146429,
423745702,resolved,ChIJ6clmcaJt-TIR9pP7a1N6Qdo,McDonald's Davao Sta Ana,7.0765864,125.6165752,
425021083,resolved,ChIJVVVVVVUR-TIR_RpRKj36Vnw,Evergreen Hotel,7.0740823,125.6238491,
425023270,resolved,ChIJI-IO-Zdt-TIR-xW1QrlnI30,BS Inn Corporation,7.0753263,125.6208361,
425026869,resolved,ChIJ6_2vL5ht-TIRTF60aYQA-HE,Mindanao Bakery,7.0741852,125.6197929,
425502326,low_confidence,ChIJ_cU9u6bJlzMREtMxU73FC5w,Sisig Society,14.590966,121.0601494,distance=5.8km>5.0km
425502334,resolved,ChIJi67zagbJlzMRM_gRWnB-YyY,ArmyNavy Burger + Burrito Valero,14.5588886,121.0234832,
425502343,low_confidence,ChIJEwwgD0TJlzMRSe_FR9OSc-Y,YAKINIKU A5 TOKU - Little Tokyo,14.5537791,121.0143474,name_similarity=52
425502347,resolved,ChIJOZVaKgnJlzMRpwhu62nN9rs,KFC,14.5586086,121.0189334,
425702265,resolved,ChIJgw5KyWzJlzMR6XsiVrFJ02g,Andok's Evangelista,14.5512512,121.0102126,
426699774,resolved,ChIJC9M5O4HJlzMRDU1BHjE9K-M,Sinangag Express,14.553804,121.0028538,
426934472,resolved,ChIJmYwoTxrJlzMRsFXduk_E0cw,Amici di Don Bosco,14.5513837,121.0139316,
427496370,resolved,ChIJN5YfZjps-TIR88wzJgHcjKg,Hagar's Place Bar & Restaurant,7.102216299999999,125.6389532,
427496451,resolved,ChIJ-Td0jXxt-TIRFxXDH7Kx2lE,Pan De Pane Bakeshoppe (SANDAWA),7.0587513,125.6010769,
427576875,resolved,ChIJOZakDQnJlzMRIxSFHztL2t0,McDonald's,14.5606689,121.0180172,
427576894,resolved,ChIJywW4dRPJlzMRD-0R869WTkY,Yellow Cab Pizza Co.,14.5501624,121.0133485,
427576898,resolved,ChIJOZVaKgnJlzMRpwhu62nN9rs,KFC,14.5586086,121.0189334,
428230471,resolved,ChIJeb1uzUBt-TIRRYiEkvKv-bk,Karlyn Food Station,7.0776065,125.5823813,
428297878,resolved,ChIJ4cm36FW4lzMRQNda5q1ibgA,Kainan Sa Bahay Bahayan,14.6264676,121.1229017,
428700184,resolved,ChIJaahhH3dt-TIReVS7qsl8-Fo,Cafe Rysus,7.070286299999999,125.6054927,
428709519,resolved,ChIJQR5Hyept-TIRIco7D41o_O4,Fagioli Coffee Club,7.1010522,125.6326535,
428975474,resolved,ChIJsy9handt-TIRn_Pje4uWVOw,Taps - Duterte Branch,7.0696087,125.6050365,
429458005,resolved,ChIJD05OsBS3lzMRblKT12W42MU,The Coffee Bean And Tea Leaf,14.65717,121.05592,
429485074,resolved,ChIJpV-AibRt-TIRqoeQowR-xrM,My Hotel Davao,7.0668834,125.6059989,
429485165,resolved,ChIJ4XGZ2nlt-TIREUVe3RgV2WE,The Bourke,7.068028600000001,125.606264,
429492230,low_confidence,ChIJjW_hbQBfvTMRWQ00rK6IHH4,Chinos Coffee Bay,14.1763375,121.2909633,distance=5.1km>5.0km
429687921,resolved,ChIJE27VBjDakDMRxWppJrGreqs,Diadem Court,15.8039301,120.9993944,
429687928,resolved,ChIJsd23diTakDMR4w7VW3IzGvc,Magellan's,15.7982969,120.9945373,
429687930,resolved,ChIJzQu3dR_akDMRIMjybGsYp4c,Marquez Restaurant,15.7936236,120.9906557,
429687942,low_confidence,ChIJw39hdwArlzMRL5OTlIpgLUM,The BIGS Sizzling House,15.5852251,120.9195996,distance=23.7km>5.0km
429692911,resolved,ChIJVSs0R3dt-TIRgfRGmz2YHrI,Hotel Galleria,7.069492299999999,125.6051407,
429694770,resolved,ChIJ4QqQYRDJlzMR7osKgssJWlw,Colden Blue Karaoke,14.550625,121.020917,
429694774,zero_results,,,,,ZERO_RESULTS
429694777,resolved,ChIJ1-WKShrJlzMR1Q3jpXurVOo,Isshin,14.5487871,121.0246703,
429694780,resolved,ChIJJbTRThrJlzMRwWHSLIrm-gg,Sakura Yakiniku,14.5526476,121.0147027,
429694781,resolved,ChIJCeC2ThrJlzMRFWHoGqNCrcM,La Cabane,14.549036,121.024435,
429712641,resolved,ChIJK36PFXdt-TIRNBu76J6FuOo,Golden Brown Restaurant,7.0684828,125.6062109,
429812198,resolved,ChIJlbL2XBrJlzMRddN3bxXkmXI,Royal Barge Travel And Tours,14.549677,121.0235757,
429812199,resolved,ChIJnwoJVRDJlzMR_TPle4BXpJw,Azuthai Restaurant,14.55088,121.01926,
429812200,low_confidence,ChIJdRSJLN-LGGARhbFoEyqUCgo,Tsukiji,35.6640869,139.7715977,distance=3000.6km>5.0km
429812201,resolved,ChIJnwoJVRDJlzMRZu37qCImogk,Cirkulo Restaurant,14.5508374,121.0195054,
429820728,low_confidence,ChIJBZxvvTPOlzMRhD6tYJYsnWc,Hoka Ben,14.4519883,121.0299271,distance=11.4km>5.0km
429820729,low_confidence,ChIJQ03oQhF3AjoR-WnNBjw4NpY,Bumchums,22.546862,88.3488864,distance=3548.0km>5.0km
429820730,resolved,ChIJfanRXBLJlzMR0aGDASmVWuc,Izakaya Kikufuji,14.5536607,121.0140262,
429843715,resolved,ChIJWZ3fXBLJlzMRnmXXfub2BMk,Shakey's (MCS),14.5528421,121.0140235,
429878403,resolved,ChIJ4w1LZwDJlzMRMn_gnxStUwo,CoCo Fresh Tea & Juice - San Lorenzo Place Mall,14.5422977,121.0179652,
430019901,resolved,ChIJOTRdMLnJlzMRm-IezfWh5fA,Jollibee,14.5594263,121.016114,
430023693,resolved,ChIJIzReRyTJlzMRJqDzaSRD7wY,Chao Shan Beef Hotpot,14.5599848,121.0137267,
430024650,resolved,ChIJj98ungzJlzMRGiUxpbxpc4w,Mang Inasal Centerpoint Bldg C. Roces,14.5595101,121.0122196,
430134794,resolved,ChIJIyw--fZt-TIRGjRO8K0k5rM,E-lounge,7.0604793,125.5865714,
430134810,resolved,ChIJC9sVF4Ny-TIRGwxU4I34U-4,Park Square Inn/ Pia's Cafe,7.056747199999999,125.6002267,
430235241,resolved,ChIJ52dN6Q7JlzMRnk29tM7rdxY,Chowking (V.A. Rufino-Dela Rosa),14.5569175,121.0182343,
430570800,resolved,ChIJbT55aDe2lzMR_PWPjUFEEXE,Pancake House - E. Rodriguez,14.6215251,121.022965,
430574929,resolved,ChIJ1x5jlKFt-TIRnNXTtcxqafM,Dencio's,7.0777601,125.6139418,
431390756,resolved,ChIJ4Wo2ZoM9pTMR5sKNzmQIkUg,Moksha Cafe,11.967602,121.9274642,
433562088,resolved,ChIJq2e83hUM-TIR95hHe50sack,Starburst Marketing Corp (Hardware),7.0137499,125.4959404,
433562089,resolved,ChIJk4NmmRUM-TIRBdVg-jQAlr0,Mars Agri Ventures & Commodities,7.013534,125.4944516,
433562092,resolved,ChIJh3AGghUM-TIRoqcq6ZvtE5o,Merco,7.014187,125.4973153,
433562098,resolved,ChIJEZVgxD0M-TIRunWUU2o6yMc,Jollibee,7.016565300000001,125.4939096,
433568513,low_confidence,ChIJX5s2uUwM-TIRNMijCrfyW2w,Hotrod Restobar,7.0309151,125.5067556,distance=13.5km>5.0km
433569102,resolved,ChIJYcNZUUJt-TIR4Lsj5gQR2fs,Bulltaps Bulalo Atbp,7.086935299999999,125.6188766,
433777088,low_confidence,ChIJ2T-AAADJlzMRbrE5WK6jI-8,dropthebean,14.5554492,121.0154417,name_similarity=36
433777094,low_confidence,ChIJLZc_UwbJlzMRUofIJlhy5l8,"121 Restaurant (Salcedo Village, Makati City)",14.5600994,121.0244501,name_similarity=58
433777141,resolved,ChIJoSJyoAjJlzMRAoqY3FwBfY0,Apartment 1B,14.5589863,121.0221525,
433794122,resolved,ChIJlTdTuwfJlzMRKWgRa1CGhaw,KUSINA ALFONSO,14.561364,121.0240673,
433794129,low_confidence,ChIJD9Q3XfDHIIYRgqqWORzURpg,Gonzo’s Smokehouse & BBQ,29.94002129999999,-90.3827456,distance=14031.1km>5.0km
433794140,resolved,ChIJlWBiAgDJlzMRb72lTAOLa9M,North Park Noodles - Park Square,14.5491125,121.0255408,
433804207,resolved,ChIJKUo54ZjJlzMR1LrENwVDlHY,Go Bento,14.5605555,121.0179844,
433812830,resolved,ChIJOZVaKgnJlzMRpwhu62nN9rs,KFC,14.5586086,121.0189334,
436064584,resolved,ChIJrXx0l5AN-TIRiWDnRwStWXI,Merco,7.056915,125.5086351,
436086698,resolved,ChIJgaxCCEcS-TIRuS4qVlF5DtE,Balolong Hot Pandesal,7.089246600000001,125.505434,
436389954,low_confidence,ChIJZal5LgGZqTMRpTtPsgU6JNM,Lugaw Ni Bossing - IT Park,10.3313716,123.9064173,distance=107.4km>5.0km
436389968,zero_results,,,,,ZERO_RESULTS
436765576,resolved,ChIJE3GF0msN-TIROWtkmqrj8vc,Merco,7.050801799999999,125.5410911,
436765578,resolved,ChIJLZbHAL0S-TIRSqOs9fPbHko,Uling Roasters,7.0755558,125.5463412,
436765579,low_confidence,ChIJXRWcJwf5-DIR1dax7D-eiuY,Raphael's Lechon and Catering Services,7.0007673,125.0856256,distance=51.5km>5.0km
436766151,resolved,ChIJnT0har4S-TIRwWQA7gdKN0Q,Gutierrez Function Hauz,7.079012499999999,125.5456034,
438032545,resolved,ChIJdZl1EXeqvTMRwYN5NEycPNk,Buceo Anilao Beach & Dive Resort,13.6864888,120.8921976,
438032546,low_confidence,ChIJJ5gzGP0-kTMRG-1ZO3hRkFg,Matutina - Gerry's Seafood House,15.9551944,120.5761371,distance=53.4km>5.0km
438032550,low_confidence,ChIJjfrz9X84-4kRfSnn2cZp2-0,Isaiah Hall Bed & Breakfast,41.7432574,-70.1945204,distance=13431.9km>5.0km
438032562,low_confidence,ChIJe_iWZhe5lzMR8Zag5g12jPk,Cafe Margarita,14.6491229,121.1121639,distance=188.2km>5.0km
438032563,resolved,ChIJbyFLI7mPkTMRLHVD34l5x0w,NATALNA GRILLE,16.5796056,120.3152926,
438048265,resolved,ChIJ2-RqQb9gvTMRSG5L7Dj6Mlc,TRACE Suites,14.1775439,121.2396126,
438057680,resolved,ChIJO7CvKrVgvTMR_bhKcWXmzw8,Fertility Tree,14.1597833,121.2425717,
439399668,resolved,ChIJhxm4DzrxBzMRJuzpsGivLPs,Pongos Hotel,11.0068372,124.6085568,
439997630,resolved,ChIJW_rRe5W3lzMRfAEDADZhcOA,Bellini's,14.6224588,121.0569562,
440200809,resolved,ChIJK_Ce94C5lzMRLI3pUaXGx94,Jollibee Gil Fernando- Sumulong,14.6347094,121.1017424,
440480227,resolved,ChIJE3GF0msN-TIROWtkmqrj8vc,Merco,7.050801799999999,125.5410911,
441029563,resolved,ChIJ25NbEQBz-TIRfIqBQg2sU8k,Jollibee - Davao Ecoland West Drive,7.049671999999999,125.5853243,
441029564,resolved,ChIJcXG-BABz-TIR1CXLXIao5MY,Mandarin Tea Garden - SM City Davao,7.0502872,125.5884283,
441029565,resolved,ChIJoWCGLZZy-TIR5wGBqz1NELg,Mang Inasal,7.04949,125.588308,
441029566,resolved,ChIJWRAr0Zdy-TIRKDpTkBs9J9s,Bigby's Café & Restaurant,7.049861,125.588019,
441029567,resolved,ChIJh4wsRgBz-TIRKmi-onMRm6M,McDonald's Davao Global Towship,7.057305299999999,125.5804088,
441029568,resolved,ChIJmc-kx5dy-TIRF8NKx-uUUVs,Pizza Hut SM Davao,7.050459099999999,125.5878373,
441029569,resolved,ChIJKedrhxZz-TIRQlTsi1Lczwo,Yellow Cab Pizza Co.,7.0524164,125.592006,
441029570,resolved,ChIJd6A1O3dt-TIRAgM4hrGM_0M,KFC,7.0698262,125.6051365,
441029571,resolved,ChIJszgeYb1y-TIR-Xh6QRKvEWA,Greenwich,7.0501641,125.5882582,
441029572,resolved,ChIJZcmxjd5z-TIRFqaWxyr1ASw,Chowking Shell Quimpo Drive-Thru,7.0550354,125.599253,
441029573,resolved,ChIJfT6H0Jdy-TIRqfYdtkLDDv8,Goldilocks - SM City Davao,7.0506106,125.5885446,
441029574,resolved,ChIJw6r_pUlz-TIRVkk2ScbuuR0,Bo's Coffee - The Compound Davao,7.056200599999999,125.5888655,
441029575,resolved,ChIJ0UIDiWkN-TIRO5sHWAdM4oo,Blugré Coffee,7.064044,125.5966896,
441029576,low_confidence,ChIJXxmGUDxt-TIRUP4f6qKc124,Seattle's Dream Cafe,7.0738976,125.6059217,name_similarity=58
441029595,resolved,ChIJUX_DdgBt-TIRGz-d0fadUK0,Mandarin Tea Garden - GMall Davao,7.078480400000001,125.6139552,
441029605,low_confidence,ChIJ2711khMtDogRua1murrugr0,UIC Student Center West Food Court,41.8707561,-87.6741804,distance=13609.2km>5.0km
441249612,low_confidence,ChIJB5A0LI63lzMRLwaM4KBHHos,Lucky Rainbow Carwash,14.6390878,121.0163648,distance=9.2km>5.0km
442527524,resolved,ChIJmU34nQ3JlzMRIOLNLFkVGO0,Goldilocks,14.555148,121.0134188,
442527598,resolved,ChIJp6IHqXXJlzMRe8hmQL4zTNY,Pat-Pat's Kansi,14.5660576,121.0087713,
442527606,resolved,ChIJq9Hyou3IlzMRkIKZdk4aIKE,Conti's Bakeshop & Restaurant,14.5491622,121.0544621,
442527616,zero_results,,,,,ZERO_RESULTS
442527681,resolved,ChIJjblx_JF-vTMRVeP6-PaIT58,LZM Restaurant,14.2291137,120.9706732,
442527704,low_confidence,ChIJS8rXHwAAlzMR3UAFAyQ0k0g,Baliwag,14.9656856,120.8943088,distance=83.1km>5.0km
444390282,resolved,ChIJObbmxvLIlzMRWXjRgvVwwPk,Hap Chan- Market Market,14.5499521,121.0552543,
444390284,resolved,ChIJjUAhLvPIlzMRRnpBi5rZa5k,Razon's,14.5489305,121.0555876,
444390286,resolved,ChIJmZh1ocPIlzMR-idUjg92VFc,Bacolod Chicken Inasal,14.534908,121.048205,
444390287,resolved,ChIJVWIOo8PIlzMRk6JyxH2huUc,Dunkin' Florenceway,14.535067,121.048415,
444390288,resolved,ChIJq6HwCcPIlzMRP1MLthse4OI,The Sandwich Guy Fast and Fresh,14.535091,121.0484173,
444395107,resolved,ChIJR-wcWQDJlzMR0WerPOzsxGU,Starbucks - One Ayala,14.551378,121.027928,
444395141,resolved,ChIJacqYAKrJlzMRha2_WRquW3o,Jollibee,14.5624632,121.0280817,
445422987,resolved,ChIJgRsSO7BOvTMRV27Fes5TODY,Sariaya Bread House,13.9633676,121.5247822,
445423020,resolved,ChIJc9bO0bFOvTMR5lw0S5jV12o,Gala-Rodriguez House,13.9619642,121.5248568,
445931430,zero_results,,,,,ZERO_RESULTS
445931434,resolved,ChIJ2RZUuD42vTMR4f6H8maYhSI,Dalampasigan Beach and Pool Resort,13.859341,121.5103877,
445931437,resolved,ChIJwfrc3-s3vTMRDAYpmtjdAWI,Paraiso Beach Resort,13.8595077,121.5117212,
446061045,resolved,ChIJeeZjZVlLvTMRHB-33PnWrOs,The Star Garden Tower Hotel,13.9377171,121.6133127,
446091696,resolved,ChIJx6IRTrJXljMR6_tJ2pEWOW8,Jollibee APALIT,14.9500985,120.7590896,
447592910,low_confidence,ChIJm-zibyVZwokRvW1l7gzdtJo,Élysée's,40.7236261,-74.01012589999999,distance=14328.7km>5.0km
447593713,resolved,ChIJn8w2LgRt-TIR8A_s3bBHLNw,DIMSUM DINER,7.0791732,125.6079746,
447593926,low_confidence,ChIJmZCm_va12YgRSVJ9-swurx0,La Piscine Restaurant at Flamingo South Beach,25.7862127,-80.14430879999999,distance=15420.6km>5.0km
448786054,low_confidence,ChIJoWnsGDuv3EcR-qz9p9Ynfbw,Bistro Van Gogh,51.2028766,2.9030996,distance=10509.3km>5.0km
452356957,low_confidence,ChIJTYHhcgC3lzMRhPtSY2_0GRM,Rogue&Co,14.6511313,121.0363154,distance=9.8km>5.0km
452356963,low_confidence,ChIJv3lSBAe_woAR5Pq9l2eaevY,Hollywood,34.0907315,-118.3266146,distance=11733.6km>5.0km
452356965,low_confidence,ChIJXYWi1hGmIIYRvVjha9AX2LY,Bourbon Street,29.9547066,-90.0691532,distance=14047.9km>5.0km
452356980,resolved,ChIJixDnRqrJlzMR06g7XYWLXg0,Ziggurat Cuisine,14.5634971,121.0292256,
452356983,resolved,ChIJF0E0CarJlzMRyx-Iir0XNoo,Andok’s,14.5627937,121.0287046,
452356988,resolved,ChIJrfCRZ6rJlzMRbDKTUSWGhJQ,Jose Cuervo Cantina,14.5633496,121.0300399,
452356992,resolved,ChIJibSUDqvJlzMRiwJ-xT_UR-g,Ringside Bar,14.5634859,121.030279,
452356994,low_confidence,ChIJudtaKNDNlzMRMarycPBIQcA,TGI Fridays,14.5136363,120.9802073,distance=7.8km>5.0km
452375404,low_confidence,ChIJ90yScMDJlzMR3Z_N_Zsy37Y,La Brasserie Café ~ Philippines,14.5662046,121.033747,name_similarity=44
452864753,resolved,ChIJP7YFFhi3lzMRF_oGgBYGYNk,Ninang's Pansit Malabon,14.66215,121.043905,
452865282,resolved,ChIJ7fvQs9i2lzMRXD8wDI5GmK4,Pan de Manila Mindanao Avenue,14.6710822,121.0325854,
452903886,low_confidence,ChIJQapk3Hht-TIRojAZ_A-XclQ,Jaltan Food Centrum,7.064429,125.607306,distance=48.1km>5.0km
452922610,resolved,ChIJNaRnf5tt-TIRLBXnTeB82Gk,FM&a Suites,7.0692534,125.6150106,
453007247,resolved,ChIJTUgcjt1gvTMRkYBY_7YAGtU,Dalampasigan Los Baños,14.1825024,121.2244534,
453023105,resolved,ChIJX0Imt83JlzMRulGn95jCJDc,Starbucks The Columns,14.5617761,121.0166966,
453023114,low_confidence,ChIJY5IHfzTQlzMR5ak9bYY6-2U,Earles Delicatessen,14.4217355,121.0361188,distance=15.7km>5.0km
453023115,resolved,ChIJP1fgDgfJlzMR65YquXChKRY,New Bombay Authentic Indian Cuisine,14.5611117,121.0253459,
454056870,resolved,ChIJc2ux__PIlzMRKLoiCNet5Rk,Starbucks 32nd St. and 7th Ave. Drive-Thru,14.5537475,121.0508284,
454060828,resolved,ChIJtzGFJ_PIlzMRqaMXBJVLDjE,North Park Noodles - Market Market Branch,14.5507141,121.055534,
454085200,resolved,ChIJh8d5k95gvTMRARWpTR4u6R4,Lakeview Resort,14.1796734,121.22138,
454089388,low_confidence,ChIJXxNQfgBRvTMRsGgnFhjlTEI,SaCampKo,14.1132054,121.5077844,distance=30.6km>5.0km
454089755,zero_results,,,,,ZERO_RESULTS
454839826,resolved,ChIJv82Jo50vvTMRe6PSoaCssYQ,Acuaverde Beach Resort,13.6640398,121.375293,
454900901,resolved,ChIJV_vbV3XJ-zIRLP8ddx70emw,Jollibee Mati,6.9510513,126.2195947,
455088934,resolved,ChIJ5bZo1Pw6vTMRIpSHChL8p-4,La Luz Beach Resort,13.6611106,121.3718759,
455895387,resolved,ChIJbQLwaqmPkTMRczC3dUU0gO4,Sunset Bay Beach Resort,16.5901822,120.3016788,
455901467,resolved,ChIJY3xxHnht-TIR2Dj6LiytbWs,Cecil's Snack Inn and Bakeshop,7.067879599999999,125.608401,
455911162,low_confidence,ChIJo7Cyzfm9_zIRbHP7vHeUPqA,Sinbad Motorcycle Parts & Accessories Shop,8.3647961,124.865395,distance=166.0km>5.0km
457315657,resolved,ChIJ8UQUuxC3lzMRTQtlfpOGpbQ,Starbucks 74 West Avenue Drive Thru,14.6452169,121.0278894,
457315783,resolved,ChIJS180LK63lzMRh0_1ftMZB_Y,Starbucks 118 Timog Avenue,14.6329567,121.0430054,
457322181,resolved,ChIJm3ht_UD3ljMRdWQpOYKxBU4,Paskuhan Village,15.0504022,120.6926358,
457862545,resolved,ChIJyVRv57FOvTMR-UIhZT5k07Q,Villamater's Bakery and Pasalubong,13.9612136,121.5252036,
457873963,resolved,ChIJFzyd4q9OvTMR7oDx1Lh6soU,Casa Plaza Restaurant and Catering Services,13.9638221,121.52548,
457873965,resolved,ChIJa0Y0LK5OvTMR__ftcCkIRCU,Don Lauro Restaurant,13.9624558,121.5259026,
457873975,resolved,ChIJSS73zLdPvTMRh9sSOCKraLU,Treat Haus,13.9617588,121.5239247,
457873982,resolved,ChIJd9QnJ-VPvTMRAj-xoTjg23Y,Reynoso Mansion Ruins,13.9613868,121.524555,
458104744,zero_results,,,,,ZERO_RESULTS
458104745,resolved,ChIJzdeO0izJlzMRTmy-4y6F3Ww,Aysee Ultra - Original Branch,14.5772461,121.0669763,
459407752,resolved,ChIJaw_NoIHJlzMRj7ko8jqozvY,Verve Room Entertainment Bar & Restaurant,14.570199,120.9915848,
461505074,resolved,ChIJoS-CgeD2ljMRxulucD7pOJQ,Aurely's Bakeshop,15.0521221,120.6629024,
461551567,resolved,ChIJvdCp7wr3ljMRhPANcd0qsQE,Bren Z. Guiao Convention Center,15.0296429,120.6871188,
465239773,resolved,ChIJuUoJNidavTMRaXj2qesJkKk,Andok's,14.1363315,121.4157027,
469105044,resolved,ChIJpRIzWA9jtTMRQoVyi7UwdCw,Chowking Palawan Rizal,9.740382,118.7408203,
469105045,resolved,ChIJ2bgBwQljtTMR3hw6hYj0txA,Jollibee,9.739959,118.7408551,
469105070,resolved,ChIJNzc1aMWZqTMRYnrpKladEy0,Hotel Fleuris Palawan,9.7422855,118.7409877,
469173247,resolved,ChIJETZrxDNjtTMR9MiVuV7l8fo,Mitra's Ranch,9.8115885,118.7353438,
469173250,zero_results,,,,,ZERO_RESULTS
469173266,resolved,ChIJufXoLeBjtTMRJZkGxw2dWVw,Payuyo pension house,9.7348865,118.745753,
469173267,resolved,ChIJsSwI_Q1ntTMRIzYNgoBCsq8,Balinsasayaw Seaside,9.7299971,118.7721946,
469173271,resolved,ChIJ1Q73flRjtTMR5lw-_BPAcm4,De loro Travel and Tour Agency,9.745981900000002,118.7514496,
471896475,resolved,ChIJg7zhV173ljMRVgsgI4uVswA,Romantic Baboy - San Fernando,15.0441137,120.6741214,
472267235,low_confidence,ChIJs-i71KnJlzMR4EDDAe4JO1Q,Don Henrico's Food Pizza Corporation,14.5631069,121.0249722,distance=10.1km>5.0km
472571491,resolved,ChIJEZhDyHJjtTMREMjfU2Slpdw,San Jose New Market,9.783093,118.7449861,
474490827,resolved,ChIJ60AcndLQlzMRTH6Vexc01d4,McDonald's,14.3561451,121.0458083,
476259874,low_confidence,ChIJV82PYeiYqTMRsCj6_VoCUDg,Asmara Urban Resort & Lifestyle Village Inc.,10.3448125,123.9108125,name_similarity=56
477394967,low_confidence,ChIJcbiOmIrhBIgRIBZk8iWkco0,Mount Bayside,43.1833137,-87.9063783,distance=13537.6km>5.0km
477394978,resolved,ChIJC5u_Y6ljtTMR24u9758LMyk,Hillside Resort,9.7734672,118.725932,
477394983,low_confidence,ChIJ94UaTAAfqwcRMYvVpwaW-lg,Coco Loko Beach,-8.116424199999999,-34.8929876,distance=17112.2km>5.0km
482889580,resolved,ChIJMe6IZ-XQlzMRbmeFIzQOuGg,HO CHAI LAI Restaurant - Muntinlupa,14.3818981,121.0446738,
482984926,low_confidence,ChIJbb0Xf8QUkFQRlqZs39PX_O0,Cafe Lago,47.6396933,-122.3023376,distance=10713.6km>5.0km
484113864,low_confidence,ChIJo1tmKwBjvTMRaCvx7nle8hc,2J’s Sizzlers,14.2109139,121.1466963,distance=11.4km>5.0km
484118506,resolved,ChIJkyB_DrlgvTMR2ldK2nEMw4k,Jerico's Bakeshop,14.1731861,121.2431898,
484118722,resolved,ChIJtYNNFLdgvTMRB12jH-J1_fE,Mer-Nel's Cake House and Café,14.1702087,121.243837,
485779069,resolved,ChIJM4rH8exjtTMRzUTBC1GNKiE,Dolce Vita Hotel & Restaurant,9.7522555,118.7509038,
487267654,low_confidence,ChIJ-9UPcBDqlzMRY4_ZVLzIOwA,Kainan Sa Tabing Lawa Restaurant,14.4955264,121.277865,distance=46.3km>5.0km
487424244,resolved,ChIJNZ2_lpVlvTMRaGPTYJMYsLk,Rose and Grace Restaurant,14.1111088,121.1442489,
489450598,resolved,ChIJSYpqbMxcvTMRzlMiHSrOOU0,Prosperity Food House,14.0697219,121.3248006,
489478574,low_confidence,ChIJDxpgorVgvTMR1_mz9gO3Nbw,The Leaning Dao Tree,14.1629978,121.2413025,name_similarity=44
490324176,resolved,ChIJ_zFuGqJt-TIRmQ-9gC_eYnE,Gorio-Soo Cafe,7.0769975,125.6156886,
490324402,resolved,ChIJ9dvrrFZs-TIRX3eAdtbOS8I,Uncle Mark,7.100740399999999,125.6148056,
490429597,resolved,ChIJjd_PI6mZqTMR4QuQ0kjg5LM,Manila Foodshoppe,10.3245889,123.9346647,
490433000,resolved,ChIJbb1931GYqTMR6lfwOYw1t-A,KFC,10.3367784,123.9416999,
490592578,resolved,ChIJNVW2EQCtlzMRPNUgYWJSQR4,PANDI: Bayan ng Kasaysayan,14.8562593,120.9227664,
492082746,low_confidence,ChIJTxkhE-Vm7ogRqfnzD6C-79o,BIG NICK'S,30.8463909,-83.30500459999999,distance=14363.1km>5.0km
492082906,low_confidence,ChIJmbXthypivTMRpohc3mXUoRI,Onyang's Street Wings,14.2138938,121.170396,distance=9.3km>5.0km
492124473,resolved,ChIJS3OnzxLjlzMRiPM14GXDyb0,A and B Eatery,14.2799793,121.4137006,
493168254,resolved,ChIJN3lErxT3ljMRZscpIo9EWWc,Dimsum vs. Sushi,15.0348336,120.6745486,
497119466,resolved,ChIJYwPtTtC3lzMRYK_QFHIKfOo,McDonald's Project 8,14.66795,121.02068,
497721351,resolved,ChIJbb1931GYqTMR6lfwOYw1t-A,KFC,10.3367784,123.9416999,
501542284,resolved,ChIJC-6IG_21lzMR2prSJAlR58A,SM Cinema San Lazaro,14.618689,120.985137,
501843157,resolved,ChIJcSD-7uJdvTMRLlN5QSWwd5I,Forest Club Eco Resort,14.153205,121.2760119,
501843158,resolved,ChIJ__9PgAhevTMRjM51OvNJ7aM,Royal Palm Resort,14.1614096,121.274139,
503055277,resolved,ChIJ25RmVlTIlzMRtPF39vaB1IM,Barcino - Rockwell,14.5649154,121.0361977,
503813619,resolved,ChIJ04v4mgz3ljMRqa8PxpckLsg,Puregold Jr. - Cafe Fernandino (San Fernando II),15.033543,120.687044,
504408838,low_confidence,ChIJOW5HXPEfBzMR88RHR7NRAlg,"Tourism Saint Bernard, Southern Leyte",10.2792454,125.1376697,distance=28.3km>5.0km
504895395,resolved,ChIJKSA1hRr3ljMRplls21bhvic,Susie's Cuisine,15.0416651,120.6768646,
505038064,resolved,ChIJbejfgHK2lzMRX52ygl9QCKA,Mang Inasal,14.6311981,120.9988276,
505045599,resolved,ChIJWxJenka2lzMRMegOD14_too,Burger Machine,14.630943,121.0179463,
505047167,resolved,ChIJqXWwgYC3lzMRWtoMy6ck-wE,KING OF PARES,14.625855,121.011348,
505062485,resolved,ChIJG7wAiau3lzMRGMTz5y_X_pg,Motorista Sizzling House,14.6387858,121.0386889,
505063115,resolved,ChIJje1mtD21lzMRLLgqU3v4Hz0,Five Aces Hydraulic Corp,14.6390741,120.9830005,
505063790,resolved,ChIJEwK53pbJlzMRNoDEtejb3SI,Burger Machine,14.5788778,121.0058366,
506737978,resolved,ChIJQ6dSiQz3ljMRMGkFCe7_yck,McDonald's SF Dolores JBL,15.0338448,120.6865323,
515626509,resolved,ChIJc-Dnzj9XvTMR9-IuI4_g9aM,Arabela,14.1314647,121.435787,
515709607,resolved,ChIJP1MJXmjJlzMRdHZAnrOqQ1A,Chowking Arnaiz- P. Burgos,14.5481617,121.0007038,
516063494,resolved,ChIJuyfvh0DyljMRU_EKYLk-CC8,McDonald's Angeles Intersection,15.1427958,120.5963029,
517062550,resolved,ChIJFXJKcSnKlzMRiMDjMnyU9K8,Coco Ichibanya,14.5750564,120.9845305,
517062562,resolved,ChIJa2RIyETJlzMRG7wpuAh6vnY,Treb's RAMEN,14.5382485,121.0003507,
517062572,low_confidence,ChIJlZgnmjbJlzMRd_s9XovL-uE,Kawa Ramen - Eton Tower Makati,14.557649,121.0177234,name_similarity=53
517062576,resolved,ChIJjVv-WR_KlzMRAmFL6nc3Tg0,Happy Cream Puff,14.590045,120.9826226,
517062610,resolved,ChIJG6Zep2XJlzMRRGiZXc_wT10,Pizza Hut Buendia Taft,14.5540002,120.9980081,
517062612,resolved,ChIJSxGpaGXJlzMRGpohbSZ8V8c,Nemoto Japanese Restaurant,14.5546877,120.9984265,
519652087,resolved,ChIJ99zXiQddvTMRk5r_tkBNKMU,Eight Cafe,14.0710546,121.3286445,
519658199,resolved,ChIJmV30RZldvTMRO9nEgEGIp2Q,Zalenz Sushi House,14.0722046,121.3257692,
527825378,zero_results,,,,,ZERO_RESULTS
527852828,resolved,ChIJPSIQYMtcvTMR2I1PyXVvJqo,Goldilocks,14.0669208,121.3256555,
527856461,low_confidence,ChIJ4woi4xqFSxYRuTOb4r3Yz6I,Bonanza Addis Hotel,8.994760099999999,38.7856941,distance=8875.7km>5.0km
528711123,resolved,ChIJp4ilsO6OkTMRtgot6OGkkuI,Poro Point Lighthouse,16.6148915,120.2808078,
529861980,resolved,ChIJbf6vpdFcvTMRUR8daX8EdUk,CITY INN,14.0736911,121.3174811,
529870796,zero_results,,,,,ZERO_RESULTS
529870950,zero_results,,,,,ZERO_RESULTS
529880801,zero_results,,,,,ZERO_RESULTS
530577496,resolved,ChIJRzCs7inKlzMRg60sK7SiZrs,Tropicana Suites Manila,14.5746546,120.9864654,
530582543,resolved,ChIJT9-4ri7KlzMRchxSosdrvY0,Midnight Haven (L.A. Cafe),14.5747988,120.9814249,
530637672,low_confidence,ChIJ9fkCc7vJlzMRcXkmD_HpXL0,G Spot Restobar,14.5656864,121.001137,name_similarity=57
531490035,resolved,ChIJM4HeiiaZqTMRjvET75Y24d8,Plaza Pino,10.3318789,123.899876,
534059453,resolved,ChIJu3FCAnLCpDMRzeFtC9s9uLQ,Old Odiongan Lighthouse,12.4041309,121.9819093,
534529225,resolved,ChIJSYpqbMxcvTMRzlMiHSrOOU0,Prosperity Food House,14.0697219,121.3248006,
538715875,resolved,ChIJPVgHlaFt-TIRrCCbZwNFGFU,Ombu Chicken House,7.0776593,125.6130348,
540584963,resolved,ChIJnU8V8gpt-TIRDfUcZfRz_9I,Antonio's Bar And Grill,7.078809,125.607883,
541070652,resolved,ChIJKajNfNi3lzMRh1q92aeLXvU,Starbucks O Square Greenhills,14.6015401,121.0476104,
541070653,resolved,ChIJ19YNK9-3lzMRtYd62hxGhtM,Music Museum,14.6026825,121.0510624,
545593490,resolved,ChIJpUrFy85cvTMR-AszC_BGzt0,Ramzi Food and Tapsi,14.0721799,121.3258842,
554255486,resolved,ChIJmXr-G85cvTMRvjH4jByoR28,Jf&Jy Mami Hauz,14.0724474,121.3202265,
558754573,low_confidence,ChIJoZEmmfvLlzMRYKA7kzl-5Zg,Center Stage,14.535317,120.98066,distance=12.5km>5.0km
560226749,low_confidence,ChIJG_a7VABnvTMRLTox0kYXklE,Pook ni Mariang Makiling,14.156549,121.228571,name_similarity=58
560410986,low_confidence,ChIJK7wAIdLJlzMRZtV2RmlmTQA,"Gawad Kalinga Community Development Foundation, Inc",14.5946033,121.0281681,distance=27.5km>5.0km
560411118,low_confidence,ChIJAXu0d6qqlzMRM10yiB064C8,Baliuag Dormitory,14.954381,120.899448,distance=24.2km>5.0km
560411192,resolved,ChIJG3BTE62vlzMR1fscSwixjDM,Towerville Public Market,14.8362806,121.0791414,
560411215,low_confidence,ChIJ_RKMlJWrlzMRrmYDUIURMME,JNB BAKERY,14.8821291,120.9605373,distance=13.6km>5.0km
560411230,low_confidence,ChIJTVbKcadVkFQRW_7zWf8hCi4,Corina Bakery,47.2579639,-122.444725,distance=10672.7km>5.0km
560411250,resolved,ChIJ4ZKaN3OvlzMRn46q4v3Wd64,CASA VIDAL PRIVATE RESORT,14.821428,121.037896,
566526707,low_confidence,ChIJo9CEckyZqTMRsOWcZ7F3G6A,Dynasty Tourist Inn,10.3122222,123.8897222,distance=8.8km>5.0km
567877333,resolved,ChIJ9RuaRTZDvTMRudukyylm-RQ,DOS IHOS TAPSI BURGER,14.0580355,121.329363,
567945412,low_confidence,ChIJm7FZAvvLlzMRND7t94rDdE8,Blackbeard's Seafood Island - SM MOA,14.5365481,120.9791,distance=13.6km>5.0km
567945415,low_confidence,ChIJ1WHu4wXJlzMR5QNXAcUDSxw,Pasto,14.5574672,121.0225337,distance=8.5km>5.0km
567945421,resolved,ChIJuY6ogx24lzMRejXjESHKNeo,UCC Park Cafe Eastwood,14.6082934,121.0801127,
567945434,low_confidence,ChIJD-e0W623lzMRIM5O74eYuCM,Stoned Steaks - Tomas Morato,14.6381068,121.036485,distance=5.7km>5.0km
567945443,resolved,ChIJ8QsBvR24lzMRbJjnG9LB9RE,TGI Friday's,14.6093139,121.0804035,
567945445,resolved,ChIJ1dlGNI-5lzMRwWnXcvYjgNc,Ramen Nagi - Eastwood,14.6094883,121.0805952,
567945452,resolved,ChIJo2jjCh24lzMRX1qG9NFZ7Fk,Pho Hoa - Eastwood Libis,14.6087389,121.0808121,
567945456,resolved,ChIJWw1ZAQDHlzMRJn9xV7I58Io,Super Bowl of China - SM City East Ortigas,14.5873242,121.1046393,
567945460,resolved,ChIJj0st1t25lzMRyFDXNRhjUjU,Tsurumaru Udon X Tempura,14.6091324,121.0812511,
567945470,resolved,ChIJtdkweB24lzMRGEyCXFqpxD0,Yellow Cab Pizza Co.,14.608665,121.080379,
567945491,resolved,ChIJ41FiAdq5lzMRq1a4LgbViS0,Popeyes Chicken - Eastwood City,14.6085408,121.0806851,
567945492,resolved,ChIJjeRhb4W3lzMRwjIpdn7_nII,Dunkin',14.6065779,121.0791581,
568243320,resolved,ChIJJ93opcymkDMRMA4E9Ne06P0,Aliya Surf Resort,15.764786,121.5659017,
569933357,low_confidence,ChIJS0-8In8UrjMReBUG6y8afYk,Dala-ag Camp Site and Resort,10.5239985,121.9429974,name_similarity=52
577024190,resolved,ChIJVRl79ZGzlzMRfrn3EmSi7Tc,Cuevas Bread,14.7082806,120.9589197,
582442376,resolved,ChIJ3eMI0b5gvTMRCWOSX1cDYFs,Daniela's,14.1689891,121.24518,
582442510,resolved,ChIJK99AQbdgvTMRVzWsfQ6G9Gg,Micha's Bakeshop (AMBDP Enterprises),14.1684723,121.2440363,
582458308,zero_results,,,,,ZERO_RESULTS
582458481,low_confidence,ChIJ09VzYbdgvTMRvOXllo5y5xM,Jange's Diner,14.1697231,121.2437466,name_similarity=54
582954195,resolved,ChIJTcntBXi0lzMRM6G1Uj1S8sc,Mango Grill Garden,14.6980926,120.9524903,
582956025,resolved,ChIJJY78t4GzlzMRyZ9bqm-vNC4,The Headquarters,14.7024695,120.9431915,
582956102,resolved,ChIJhSwocVmzlzMRV62RmWBfDV8,Salambao Grill and Restaurant,14.7054636,120.9417993,
582982850,resolved,ChIJB1s5fhm2lzMRXsHSE25yZvA,Bulalohan sa Ramirez,14.6148104,121.0048496,
585231040,resolved,ChIJ43h6vLC3lzMRDHTnl_oZ1-Q,Manila Rose,14.6096552,121.0100194,
589600393,resolved,ChIJI6Nc58qylzMRcOsrRbjWF_U,Margaret Store & General Merchandise,14.765866,120.8973121,
589628062,resolved,ChIJQyRVQhhTljMRu4zVQbFyo5E,RJ Grill and Resto Bar,14.7973684,120.8741562,
589657822,resolved,ChIJYaqV-TutlzMRkG8PG4PmBQE,Balagtas Vista Lodge,14.8130402,120.912747,
589671894,resolved,ChIJI3ot0m-tlzMRogsskRFdq5s,McDonald's,14.7967286,120.9296508,
589671899,low_confidence,ChIJFYK7x4bL-UIRuJIFPBdVvSU,GQ RestoBar,52.2813674,76.962081,distance=5683.4km>5.0km
589674180,low_confidence,ChIJK-GtWvQAlzMRcKB5yaK96oQ,La Kalsada Restaurant and Entertainment Hall,14.9750508,120.9424535,distance=20.7km>5.0km
589689947,resolved,ChIJF554TIaylzMRA_icLwx_Dhs,Johncis Lodge,14.7740908,120.9390037,
589689953,resolved,ChIJH9uScGKylzMRKdV_mcdKd0U,Grand Blue Castle Disco and Ktv Bar,14.7684715,120.9422211,
589712926,resolved,ChIJ50qb_kSylzMRLwpuXNrIAvQ,Four Kings Hotel and Restaurant,14.7668645,120.9373371,
589738973,resolved,ChIJ5dzMc7mzlzMRDZuPWSKj58s,Peach Blossom Court,14.7246155,120.9600836,
589927625,resolved,ChIJj20Ln7-3lzMRMabmw92jkOI,McDonald's,14.6219586,121.0538314,
589927631,resolved,ChIJG9trOr-3lzMRtYJ-qY53x6w,Clixs Hotel,14.6225827,121.0513933,
589927646,resolved,ChIJqwXUFr-3lzMRQDZNaCj88Ho,Goldilocks,14.6225631,121.0527065,
589927770,resolved,ChIJqyRpMce3lzMRCUmtALTJU5g,Nice Hotel,14.6194433,121.0503455,
589927778,low_confidence,ChIJZY6ftW95vTMRsZI8xJe0RAE,Emily's Place,14.1502996,120.9722867,distance=53.4km>5.0km
589927802,resolved,ChIJLURjhQu3lzMRtc9E3j669YU,Fersal Hotel,14.6462122,121.052959,
589927819,resolved,ChIJU6qQ2b23lzMRvU4633ymNg8,Palawan 2 Disco/Comedy Bar,14.6260319,121.0544264,
589927823,resolved,ChIJDZARjEC2lzMRivIclIjMxHs,Relax Apartelle,14.6275352,121.013797,
589927830,low_confidence,ChIJexGKLdix5zsR3XsQOfGSfZA,Kakosa Restaurant (Pure Veg Restaurant in Mira-bhayander),19.290654,72.8529968,distance=5137.5km>5.0km
589927831,resolved,ChIJyWbw5723lzMR-1PF9OTxw6k,Odesa Hot Men,14.6262797,121.0550444,
590074559,resolved,ChIJXyo_2ME_pTMR-KBFIppr2K4,HAPPY HOME HOTEL STATION3,11.954914,121.92848,
590236712,resolved,ChIJIyU4x763lzMRfzLFoYhQzUc,SunStar KTV Bar,14.6232757,121.05255,
590236752,low_confidence,ChIJbcOJDXonlzMR1NyvBX6pQyg,Andoy’s Kambingan Ihaw Ihaw,15.4328764,120.9538497,distance=90.5km>5.0km
590236755,resolved,ChIJXXlLv763lzMRJndR2b-XW0o,Leo's Canteen Bulalohan,14.625042,121.0525487,
591434564,resolved,ChIJebRvKgBnvTMRuZIWZOUvUAs,Tamesis Tree,14.1568237,121.2359916,
591436101,resolved,ChIJL6z6Nd-wlzMRRymSj61eUK0,Jollibee - Nova Square Mall,14.7012873,121.0350485,
591554587,resolved,ChIJCc_eNt-wlzMRkcwpPz1bNHA,Goldilocks - Nova Square Mall,14.7014908,121.035033,
591554590,resolved,ChIJizhpNt-wlzMRtVEUSHVeRTk,Pizza Hut,14.7014908,121.035033,
591569227,low_confidence,ChIJiQD5cim0lzMRrdDUd2aLFKI,Bonifacio Market,14.6579513,120.984204,distance=7.3km>5.0km
592680464,resolved,ChIJD4Ig-yI8pTMREB0zFMgVKLo,Jasper's Tapsilog And Restaurant,11.9624279,121.9268772,
593995135,resolved,ChIJeVtnuP21lzMRqPKKQTywqi8,"Jollibee - Marulas, Valenzuela",14.6735501,120.9819999,
593995157,resolved,ChIJHcYWp662lzMRlbS6MPIbViY,Andok's,14.6863731,120.9944061,
593996960,resolved,ChIJuy55DWm1lzMR2Hqt3Vu39vs,McDonald's,14.661555,120.9838691,
593998073,resolved,ChIJ3dSLC0C3lzMR-yOvlcKkaak,Greenwich,14.6572359,120.9877079,
594242747,resolved,ChIJhf38VMlcvTMRxR5gpudYhXw,Coozy,14.0708749,121.3257121,
594428058,resolved,ChIJWzyi8d2RhTMReXgoOrz615U,Peñablanca Protected Landscape and Seascape - Visitors Information Center (PPLS-VIC),17.7070845,121.816783,
594635808,resolved,ChIJnx-KK2pdvTMRuR0xPoDdkCE,Chowking San Pablo Junction,14.0710614,121.3074122,
595213922,resolved,ChIJeYzsshO2lzMRvZ3PvfDftK8,Pan de Manila,14.624932,121.002144,
595991125,low_confidence,ChIJDZARjEC2lzMRivIclIjMxHs,Relax Apartelle,14.6275352,121.013797,distance=5.1km>5.0km
596839800,resolved,ChIJTQDWvUu6lzMRGm2rNAEW47M,F4 Panciteria,14.697245,121.121275,
597001628,resolved,ChIJfWmOQ-qwlzMRpgipxzygEBk,Baliwag Lechon Manok,14.7051999,121.052376,
597003768,resolved,ChIJtcOWdw1TljMRaZS4WVEwBa4,Sta. Rita Mini Market,14.8542657,120.8601867,
597011709,resolved,ChIJnzToULZVljMRoMff8S4a3rE,Kuya Jom's Sizzling House,14.8939812,120.8789089,
597011714,low_confidence,ChIJsQFnUSetlzMRhO9NXBDPxIY,Max's Restaurant,14.8209567,120.923508,distance=10.9km>5.0km
597011721,resolved,ChIJcd5dfcxVljMRt8PnOS8Xs8o,Green Haven Apartelle,14.9082477,120.8696901,
597013128,low_confidence,ChIJz1ov6lTzljMRZo3L_NtwWqY,La Casa Bonita Drive-in Hotel,15.1041762,120.6075259,distance=35.3km>5.0km
597552231,resolved,ChIJYVEt1d6wlzMRA_92h-zZooQ,OCAMPO BREADLINE BAKERY,14.7012701,121.0354526,
597749863,resolved,ChIJVVWluAi0lzMRys8yT-zdE38,Karuhatan Market,14.6901893,120.9747706,
598405175,low_confidence,ChIJ9X5QVgvHlzMRCMA35syD258,Kalayaan Park,14.5675476,121.1307951,distance=24.4km>5.0km
598409045,resolved,ChIJaTo2-gzJlzMRXfXPCd37tQ4,Jollibee Petron C5 Diego Silang,14.5289195,121.0575735,
598409046,resolved,ChIJO9TwqFnJlzMRHk4Ycsfy-Gc,Chowking Diego Silang,14.5287982,121.0574829,
599190775,resolved,ChIJi63B2kKhkTMR_9J82NLmky8,Yellow Cab Pizza Co.,16.413737,120.59614,
599190782,resolved,ChIJjRVvUUKhkTMRfskDOlLGQPw,Greenwich,16.409016,120.5994416,
599190783,resolved,ChIJWxYcrUKhkTMRZAMqf5VK01g,Pizza Volante,16.4122588,120.5975461,
599190787,resolved,ChIJA79-Ul2hkTMRU5ytqVf9mX8,Tea House Session,16.4125679,120.5976308,
599190796,resolved,ChIJj7yd7mehkTMR3M6YaPapARE,Chowking Baguio Session,16.4137129,120.5960153,
599190959,resolved,ChIJQceaslrepzMRwmPZkNAIPqw,Daño Beach Resort,11.3274278,124.1196835,
599549579,resolved,ChIJP0hKnWehkTMRcbwk41RJ64E,Belfranlt Hotel,16.4150164,120.5962688,
600229039,resolved,ChIJrXF-aFfepzMRYJcGtpDN43s,Blue Corals Beach Resort - from Pea,11.3267493,124.1137492,
600323794,resolved,ChIJkXmzJBfIlzMR1IdWkLmda0Q,The Coffee Bean & Tea Leaf,14.5867975,121.0611261,
600414739,resolved,ChIJJZip27-ZqTMR4xtU1Hr8u5E,Green A.P Ice Dealer,10.3107627,123.950775,
600456099,resolved,ChIJ76gUrB6tlzMRb4gBdT6nJ-Q,Chowking,14.8213889,120.9240897,
600622954,resolved,ChIJQam_eTS4lzMRTqnanU20w_o,Mang Fredericks BBQ,14.6298778,121.0972913,
600628195,resolved,ChIJByoITZK5lzMRnniyO3Q-gso,Mama Chits Coffee House,14.6292244,121.0966971,
600628212,resolved,ChIJI39LnDO4lzMRqORlPQwrrpU,Fema's Bakery,14.6323945,121.0956243,
600643322,resolved,ChIJPT2YUDq4lzMRZrsxXDl6oZQ,Victory Panciteria,14.6245537,121.0990764,
600643326,resolved,ChIJ1bBuQDq4lzMR2oPBFWbLlNI,Tabo Panciteria,14.6235937,121.0950743,
600643330,resolved,ChIJLyFVKTe4lzMRm9V3dp8sk6w,Salud Panciteria,14.6267486,121.0967554,
600643333,resolved,ChIJu2eN0Ma5lzMRTZjcIiKXwlI,Aling Remy's,14.6286895,121.0967163,
600643335,resolved,ChIJmUqY5DO4lzMRjUIts4-sy5Y,Cafe Kapitan Restaurant,14.6306284,121.0956219,
600643350,resolved,ChIJcwof5B65lzMRvWrNhP3J1Us,Lola Helen Panciteria,14.6356807,121.0943122,
600645112,resolved,ChIJdaUO0VJMqjMRHBAfYz9aktY,Soledad Suites,9.6461221,123.856696,
601379192,resolved,ChIJM0PdfjO4lzMRp--3a-x-PMI,Krung Thai,14.6326285,121.0956215,
601379193,resolved,ChIJgfPnnjO4lzMRe31FZy1KEU8,Johnny's Fried Chicken,14.6326608,121.095867,
601834929,resolved,ChIJ5U8gYOObqTMR9VlHCHeG6YM,Travelers Home Pension House,10.2922348,123.898498,
602897733,low_confidence,ChIJBQspL5SpoTMRetlYfmMehvc,Mayon Volcano Natural Park,13.2536194,123.6856891,distance=8.4km>5.0km
602897769,resolved,ChIJJ3QKdZeqoTMR_MVLT5nOUYY,Santo Domingo Municipal Cemetery,13.2317498,123.7702587,
602897978,low_confidence,ChIJj3shYym0lzMR5qim7y4z4RM,Andres Bonifacio National Monument,14.6571525,120.9838704,distance=340.3km>5.0km
602898034,low_confidence,ChIJs-MT7QAToTMRNMZJWiOUueA,Agol Canteen,13.0895588,123.4611833,distance=38.0km>5.0km
603555859,low_confidence,ChIJIV_h5REeqTMRgeBTMNAcRjw,RS BAKESHOP,10.7167567,123.5161712,distance=137.8km>5.0km
603589348,zero_results,,,,,ZERO_RESULTS
603599853,resolved,ChIJ8fVXv8q5lzMRBSyBeX2Fh7M,KFC,14.6346009,121.1013221,
603599854,resolved,ChIJocsY7Mq5lzMRMT9KUrXklcs,Blue Wave Mall,14.6358083,121.1010349,
603645191,resolved,ChIJj0Wsjr_BlzMRDSeVFqfLagg,Era Plaza Garden Restaurant,14.5128254,121.2374392,
603661000,low_confidence,ChIJtYQzEAXIlzMRIn5gp8vEmfs,Meralco (Jollye Recreation Center),14.5892951,121.0697984,name_similarity=57
605204012,resolved,ChIJpQwmVAv3ljMRmHi_DR4dNmQ,Aurely's Bakeshop,15.0325846,120.6886131,
606531743,resolved,ChIJNYDMfABnvTMRDxB3sDjBlKg,Maria Makiling Trail Station 10,14.1307754,121.2167079,
606538374,low_confidence,ChIJEcut2CZjvTMRrRDOwLx9Elo,Sizzling Combolicious Canteen,14.2428658,121.1138543,distance=16.5km>5.0km
606588289,low_confidence,ChIJu8SqohhVljMRCeTcRVudx6w,Greenwich,14.8985659,120.8697215,distance=9.8km>5.0km
