osm_id,name,fclass,finalCategory,latitude,longitude,status,reason
24815678,Kamakura Japanese Restaurant,restaurant,Food/Drink,14.5532842,120.995001,low_confidence,distance=11278.4km>5.0km
25388531,Madonna's Cuisine,cafe,Food/Drink,14.5384516,120.994311,low_confidence,distance=21.6km>5.0km
25389025,Bentot,fast_food,Food/Drink,14.5323476,120.9971323,low_confidence,distance=1947.7km>5.0km
25679368,Lola Ermas,restaurant,Food/Drink,12.912339,123.593146,low_confidence,distance=61.5km>5.0km
26032657,Manila Dance and Cultural Arts Center,arts_centre,Attraction,14.5788485,120.9775726,low_confidence,name_similarity=49
206253988,MaryGold Beachfront Inn,hotel,Accommodation,11.1808283,119.3900764,low_confidence,name_similarity=53
206257351,Makinit Hot Springs,attraction,Attraction,11.2899337,119.44678,low_confidence,distance=115.4km>5.0km
253499588,Zark's Burgers,fast_food,Food/Drink,14.1680796,121.2435413,low_confidence,distance=12.1km>5.0km
255049855,Johnny B. Good,restaurant,Food/Drink,14.5523564,121.0256573,zero_results,ZERO_RESULTS
255049908,Project 6 Cooperative Market,marketplace,Retail,14.6629999,121.0366059,low_confidence,name_similarity=36
255049910,Chihuahua,restaurant,Food/Drink,14.5517598,121.0204948,low_confidence,distance=12.9km>5.0km
255052689,J&w Lounge,pub,Food/Drink,14.5670035,121.0238059,low_confidence,name_similarity=53
255058375,Cafe Apassionato,bakery,Food/Drink,14.56491,121.023048,low_confidence,name_similarity=44
255058579,Pho 24,restaurant,Food/Drink,14.5646374,121.0363767,low_confidence,distance=14.2km>5.0km
255058768,Pound by Todd English,restaurant,Food/Drink,14.5510574,121.0503647,low_confidence,name_similarity=52
255059266,Baliwag,fast_food,Food/Drink,14.7620685,120.9483433,low_confidence,distance=23.4km>5.0km
255059456,Chef Robert's Table,restaurant,Food/Drink,14.5105575,120.999087,low_confidence,distance=11.8km>5.0km
255059858,Dampa,restaurant,Food/Drink,14.4945445,120.9916846,low_confidence,distance=5.6km>5.0km
255060020,Valley Vista Sports Club,stadium,Park/Nature,14.485851,121.012519,low_confidence,distance=17.5km>5.0km
255060049,Shinjuku,restaurant,Food/Drink,14.5534904,121.0140029,low_confidence,distance=2998.9km>5.0km
255060145,Zuchini,restaurant,Food/Drink,14.6297352,121.0320469,low_confidence,name_similarity=43
255060511,Willy Balangue,motel,Accommodation,14.578391,120.987457,zero_results,ZERO_RESULTS
255060940,Brothers Burger,fast_food,Food/Drink,14.5483004,121.015404,low_confidence,distance=6.4km>5.0km
255061127,Bbq,restaurant,Food/Drink,14.6861916,121.0901071,low_confidence,distance=6.4km>5.0km
255061268,Seareyna,pub,Food/Drink,14.3153339,120.9152699,low_confidence,distance=25.7km>5.0km
255061351,Sir Liams,hotel,Accommodation,14.7675644,120.9427555,low_confidence,distance=48.6km>5.0km
255061360,Grill 56,restaurant,Food/Drink,14.5813,121.0599509,low_confidence,distance=5.7km>5.0km
255061540,Pancit Malabon,fast_food,Food/Drink,14.6385053,121.0312961,low_confidence,name_similarity=57
255061743,Som's Noodle House,restaurant,Food/Drink,14.5678257,121.0238979,low_confidence,name_similarity=50
255062367,Rvc Commercial Center,mall,Retail,14.4823,121.04589,low_confidence,name_similarity=36
255062916,Lucban,motel,Accommodation,14.551911,120.99887,low_confidence,distance=77.2km>5.0km
255063833,10th Avenue Shopper's Mall,mall,Retail,14.6513409,120.9842406,low_confidence,name_similarity=54
255064481,Coran Ihaw Ihaw Restaurant,restaurant,Food/Drink,14.8155179,120.9501575,low_confidence,distance=22.0km>5.0km
255064823,GPS Station CVT1,tower,Attraction,14.281425,120.9976991,zero_results,ZERO_RESULTS
255065009,Cafe Caruso,restaurant,Food/Drink,14.5654953,121.0225582,low_confidence,name_similarity=55
255065576,Gps Station Rzl,tower,Attraction,14.4824311,121.1879571,zero_results,ZERO_RESULTS
255065746,New Kamameshi Sushi Bar,restaurant,Food/Drink,14.5644823,121.0017881,low_confidence,distance=12.1km>5.0km
255066226,B. U. T. E. L.,tower,Attraction,14.6901443,120.9779578,low_confidence,distance=9680.4km>5.0km
255066581,Latian Resort,hotel,Accommodation,14.77191,120.927787,low_confidence,distance=19.5km>5.0km
255066744,Car Snack,restaurant,Food/Drink,14.563191,121.0139989,low_confidence,name_similarity=56
255067079,Gumbo,restaurant,Food/Drink,14.5765,120.984001,low_confidence,distance=5.1km>5.0km
255068769,Air Force One,pub,Food/Drink,14.4921867,120.9912591,low_confidence,name_similarity=54
255070087,Escolta,restaurant,Food/Drink,14.555593,121.0251829,low_confidence,distance=6.9km>5.0km
255070844,Brazil Brazil,restaurant,Food/Drink,14.5650528,121.0361536,low_confidence,distance=19256.2km>5.0km
255071218,Ryu Ramen & Curry,restaurant,Food/Drink,14.6307342,121.034648,low_confidence,distance=7.6km>5.0km
255071288,BF Parañaque Commercial Plaza,marketplace,Retail,14.4475578,121.0280842,low_confidence,name_similarity=50
255071313,Ms. Brunette,pub,Food/Drink,14.5500076,120.990605,zero_results,ZERO_RESULTS
255071316,Artina Suites Hotel,hotel,Accommodation,14.5682298,121.0278253,low_confidence,name_similarity=57
255071482,Rizal Monument,memorial,Attraction,14.5606336,121.0761675,low_confidence,distance=10.9km>5.0km
255071872,East Asia,pub,Food/Drink,14.5546203,120.9893544,low_confidence,distance=3044.8km>5.0km
255071890,Irasan Commercial Center,mall,Retail,14.497031,120.992477,low_confidence,distance=12.4km>5.0km
255071899,Petra Restaurant,restaurant,Food/Drink,14.6016421,121.0542874,low_confidence,distance=32.1km>5.0km
255072323,Trinity Restaurant,restaurant,Food/Drink,14.545087,120.9864475,low_confidence,name_similarity=56
255072335,Secret Recipe,restaurant,Food/Drink,14.576431,120.98381,low_confidence,distance=5.5km>5.0km
257689739,Tulay ng San Juan,memorial,Attraction,14.6015932,121.0202936,low_confidence,name_similarity=59
262114201,The Club Ten Beach resort,hotel,Accommodation,11.964524,121.9256258,low_confidence,distance=307.5km>5.0km
262114205,Tropical Guest House,guesthouse,Accommodation,11.9526596,121.9305752,low_confidence,distance=10670.3km>5.0km
262114232,Villa Criselda Resort,hotel,Accommodation,11.958141,121.9281876,low_confidence,distance=274.8km>5.0km
262114249,il Partico Beach House,guesthouse,Accommodation,11.9579223,121.9277712,low_confidence,distance=10664.9km>5.0km
268547684,Galley Grill,pub,Food/Drink,14.4585189,121.0075385,low_confidence,distance=15029.6km>5.0km
281004241,Iskatis,restaurant,Food/Drink,14.6063688,121.1733113,low_confidence,distance=9070.6km>5.0km
281142383,E-Bai's (Former Manang's Location),restaurant,Food/Drink,14.6368727,121.0784941,low_confidence,distance=16.0km>5.0km
291713407,The Life and Heroism of Gat Andres Bonifacio,artwork,Attraction,14.5909511,120.9810886,low_confidence,name_similarity=59
300260057,Fuente Circle,fountain,Park/Nature,14.6095582,121.0810201,low_confidence,distance=567.2km>5.0km
305137265,Boom Na Boom,theme_park,Attraction,14.5538707,120.987352,low_confidence,distance=7.8km>5.0km
310526581,Asia's Largest Balete Tree,attraction,Attraction,15.7697129,121.4770282,low_confidence,name_similarity=58
311959728,Bignay Reef,swimming_pool,Park/Nature,13.8397124,121.4959894,zero_results,ZERO_RESULTS
312118640,Sulfur Springs,viewpoint,Attraction,11.0959233,124.7372362,low_confidence,distance=13499.9km>5.0km
312985379,Summit Trail to Lusod Trail Junction,tourist_info,Other,16.5816236,120.9062558,low_confidence,name_similarity=44
312985870,Clearing,tourist_info,Other,16.593518,120.904455,low_confidence,name_similarity=33
314081107,Mauravian Hotel,hotel,Accommodation,12.5764625,122.2711519,zero_results,ZERO_RESULTS
316166231,Teppanyaki,restaurant,Food/Drink,14.5389847,120.9790804,low_confidence,name_similarity=40
317254215,PAC swimming pool,swimming_pool,Park/Nature,15.2124596,120.6964341,low_confidence,distance=23.1km>5.0km
318875475,Cabaguio Hotel,motel,Accommodation,7.0929573,125.6221073,low_confidence,name_similarity=29
320808262,Tony Roma's,restaurant,Food/Drink,14.5510961,121.0263456,low_confidence,distance=11860.3km>5.0km
321793734,Kaffee Rafael,cafe,Food/Drink,10.3156399,123.8921272,low_confidence,distance=8.0km>5.0km
325283740,Taal Monte Vista,hotel,Accommodation,14.1241107,120.9863326,low_confidence,distance=6.4km>5.0km
331699595,Andres Bonifacio,memorial,Attraction,14.5945384,120.9793971,low_confidence,name_similarity=44
332519649,Aling Tina's Store,fast_food,Food/Drink,14.6833388,121.1326569,low_confidence,distance=12.0km>5.0km
339136508,Happy Valley Noodle House,restaurant,Food/Drink,14.6082267,121.0386637,low_confidence,distance=10792.0km>5.0km
344118461,Malantan-og Viewdeck,viewpoint,Attraction,10.50771,123.23219,low_confidence,distance=8.9km>5.0km
345565586,Liberation of San Pablo City,memorial,Attraction,14.0721498,121.3209025,low_confidence,name_similarity=42
351992911,Hot Shot Grill,restaurant,Food/Drink,14.6382203,121.0368693,low_confidence,distance=5.3km>5.0km
355114470,Hotel Sangelec Travellers Inn,motel,Accommodation,10.3305992,123.9480961,low_confidence,distance=559.0km>5.0km
355114591,AA's BBQ Restaurant,restaurant,Food/Drink,10.3043543,123.9601893,low_confidence,name_similarity=53
355816681,Nagisa Coffee Shop,cafe,Food/Drink,11.948933,121.9313468,low_confidence,name_similarity=56
357716500,Bulalo Republic Restaurant,restaurant,Food/Drink,14.9334356,120.8785112,low_confidence,distance=93.7km>5.0km
364629518,Pulo Rook,ruins,Attraction,14.2442434,121.1301985,zero_results,ZERO_RESULTS
369910532,Carmenchu sa Bukid Resort,motel,Accommodation,14.9544402,120.8756412,low_confidence,distance=793.3km>5.0km
370965636,Amara Cafe,cafe,Food/Drink,7.0619612,125.5944529,low_confidence,distance=11911.0km>5.0km
370995740,Square Circle,nightclub,Other,7.0919787,125.6224957,low_confidence,distance=11.4km>5.0km
372178504,Encenada Resort,hotel,Accommodation,13.5026474,120.9671768,low_confidence,distance=12083.8km>5.0km
378681164,Palm Beach,hotel,Accommodation,13.6602947,121.3674098,low_confidence,distance=14966.0km>5.0km
378717421,Lake City,hotel,Accommodation,14.0816419,121.3254958,low_confidence,distance=14463.5km>5.0km
382831946,Man and His Beast of Burden,artwork,Attraction,14.1668123,121.2429712,zero_results,ZERO_RESULTS
384843455,Cafe Breton,cafe,Food/Drink,14.1018913,120.9499904,low_confidence,distance=36.7km>5.0km
384843465,Figaro,cafe,Food/Drink,14.1030215,120.9511516,low_confidence,distance=9.0km>5.0km
384843486,Cafe Platito Atbp.,restaurant,Food/Drink,14.1017241,120.9497307,low_confidence,distance=19.6km>5.0km
384843761,Tirona Haus,hostel,Accommodation,14.1135764,120.9601093,low_confidence,distance=35.1km>5.0km
384843767,Treffpunk,restaurant,Food/Drink,14.148396,120.993591,low_confidence,distance=12297.5km>5.0km
384843794,Luxe Downunder Bar,bar,Food/Drink,14.101831,120.9521167,low_confidence,distance=4396.1km>5.0km
384843795,Kon-Tiki Bar,bar,Food/Drink,14.1019608,120.9522863,low_confidence,distance=107.6km>5.0km
384843798,Mile Hi Diner,restaurant,Food/Drink,14.1027192,120.9521457,low_confidence,distance=21.0km>5.0km
385768095,Halfmoon Hotel,motel,Accommodation,14.8363767,120.2713091,low_confidence,name_similarity=36
393731301,London Pub,pub,Food/Drink,15.182363,120.521031,low_confidence,distance=10653.6km>5.0km
393731522,BFB,restaurant,Food/Drink,8.481759,124.64862,low_confidence,name_similarity=33
393731531,Deluz Camp,picnic_site,Park/Nature,14.936725,120.058051,low_confidence,distance=11907.2km>5.0km
393731663,Pizzetta Greek,restaurant,Food/Drink,14.6444492,121.0607967,low_confidence,distance=9.5km>5.0km
393731689,007,restaurant,Food/Drink,14.6027895,121.0504373,low_confidence,distance=6.6km>5.0km
393732118,Buko Stop,fast_food,Food/Drink,14.23135,121.015649,low_confidence,distance=5.4km>5.0km
393732138,Grill 99,restaurant,Food/Drink,15.141781,120.578054,low_confidence,distance=46.8km>5.0km
409507630,Ninoy Aquino Monument,memorial,Attraction,14.115282,120.9619725,low_confidence,distance=49.5km>5.0km
410065654,Cafe 5R resto,restaurant,Food/Drink,11.2743451,124.0637653,low_confidence,distance=30.9km>5.0km
410245780,Saint Michael,memorial,Attraction,14.099284,120.9391661,low_confidence,distance=30.1km>5.0km
410400109,Ttoki,restaurant,Food/Drink,7.0822836,125.6097277,low_confidence,name_similarity=40
410401152,SJRI Guest House,guesthouse,Accommodation,10.4916688,123.4118371,low_confidence,distance=69.3km>5.0km
410401158,X / Barrio Fiesta,fast_food,Food/Drink,10.4912514,123.4090949,low_confidence,name_similarity=47
410401213,ROCK,attraction,Attraction,10.498784,123.262755,low_confidence,distance=17.1km>5.0km
410805284,Viewpoint Restaurant and Inn,restaurant,Food/Drink,14.0880927,120.9060352,low_confidence,name_similarity=56
410805287,Tower Ground Bulalohan,restaurant,Food/Drink,14.0906187,120.9116184,low_confidence,name_similarity=55
410805290,Starflower Tourist Lounge,hotel,Accommodation,14.0959428,120.9163373,zero_results,ZERO_RESULTS
410927140,Mocha Blend,cafe,Food/Drink,14.2488824,121.0626972,low_confidence,distance=40.2km>5.0km
411219546,Map Info,tourist_info,Other,14.2488116,121.0636767,low_confidence,distance=2462.5km>5.0km
411227923,Poquito Mas,restaurant,Food/Drink,14.2488575,121.0637936,low_confidence,distance=11748.5km>5.0km
412373894,Long Beach Resort Hotel,hotel,Accommodation,16.560214,120.320645,low_confidence,distance=8790.4km>5.0km
413986521,Bernadette's Lechon,restaurant,Food/Drink,10.310534,123.914791,low_confidence,distance=14.9km>5.0km
413986522,Boardwalk Plaza,mall,Retail,10.3167191,123.9339478,low_confidence,distance=14217.3km>5.0km
413986543,Jo's Chicken Inasal,restaurant,Food/Drink,10.325918,123.9225788,low_confidence,distance=155.9km>5.0km
413986567,Mikado Japanese Restuarant,restaurant,Food/Drink,10.32163,123.904482,low_confidence,distance=13584.3km>5.0km
417322074,Tio Pedro's Mexican Restaurant,restaurant,Food/Drink,14.4493522,121.029956,low_confidence,distance=13575.3km>5.0km
420896649,Basti's Brew,cafe,Food/Drink,7.0677747,125.6060583,low_confidence,distance=45.6km>5.0km
421038219,Lorie's Cafe,cafe,Food/Drink,7.0788941,125.6092737,low_confidence,distance=976.2km>5.0km
422464061,Monument to Unknown Guerilla Shot While Raising the Flag,monument,Attraction,14.7472763,120.9731942,low_confidence,distance=13764.1km>5.0km
425502326,Sisig Society,restaurant,Food/Drink,14.5564216,121.0196853,low_confidence,distance=5.8km>5.0km
425502343,Tokyo Tokyo To Go,restaurant,Food/Drink,14.5568279,121.0190858,low_confidence,name_similarity=52
429492230,Chino's,restaurant,Food/Drink,14.1688759,121.243973,low_confidence,distance=5.1km>5.0km
429687942,Tikyo's Sizzling House,fast_food,Food/Drink,15.7894498,120.9840237,low_confidence,distance=23.7km>5.0km
429694774,Tachibana Izakaya Robota,restaurant,Food/Drink,14.5499486,121.0231264,zero_results,ZERO_RESULTS
429812200,Tsukiji,restaurant,Food/Drink,14.5507663,121.019462,low_confidence,distance=3000.6km>5.0km
429820728,Hoka Hoka Bento Ramen,restaurant,Food/Drink,14.5534903,121.0143285,low_confidence,distance=11.4km>5.0km
429820729,Bunchum's,pub,Food/Drink,14.553493,121.0141076,low_confidence,distance=3548.0km>5.0km
433568513,Hot Rod Resto Bar,pub,Food/Drink,7.1052747,125.6034758,low_confidence,distance=13.5km>5.0km
433777088,Vanilla Bean Cafe,cafe,Food/Drink,14.5601842,121.0244618,low_confidence,name_similarity=36
433777094,121 Grill and Restaurant,restaurant,Food/Drink,14.5601281,121.0244451,low_confidence,name_similarity=58
433794129,Gonzo Grill and Restaurant,restaurant,Food/Drink,14.5591836,121.0217971,low_confidence,distance=14031.1km>5.0km
436389954,Lugaw Ni Bossing,restaurant,Food/Drink,11.0046062,124.611461,low_confidence,distance=107.4km>5.0km
436389968,VMB Pizzeria (Tattas),fast_food,Food/Drink,11.0042468,124.6093316,zero_results,ZERO_RESULTS
436765579,Rafael's Lechon Manok,fast_food,Food/Drink,7.0754241,125.5461749,low_confidence,distance=51.5km>5.0km
438032546,Matutina's,restaurant,Food/Drink,15.4756638,120.5964408,low_confidence,distance=53.4km>5.0km
438032550,Iishi Bed & Breakfast,guesthouse,Accommodation,16.65683,120.321174,low_confidence,distance=13431.9km>5.0km
438032562,Cafe Margarita,restaurant,Food/Drink,16.224834,120.47185,low_confidence,distance=188.2km>5.0km
441029576,Coffee Dream,cafe,Food/Drink,7.0505304,125.5885618,low_confidence,name_similarity=58
441029605,UIC Canteen,fast_food,Food/Drink,7.0696906,125.5998421,low_confidence,distance=13609.2km>5.0km
441249612,Lucky Rainbow,restaurant,Food/Drink,14.5562925,121.0099793,low_confidence,distance=9.2km>5.0km
442527616,LGA Froglegs,restaurant,Food/Drink,14.6015023,120.977132,zero_results,ZERO_RESULTS
442527704,Baliwag,fast_food,Food/Drink,14.222748,120.9738626,low_confidence,distance=83.1km>5.0km
445931430,RGM Beachhausen,hotel,Accommodation,13.8416563,121.4761585,zero_results,ZERO_RESULTS
447592910,Elysee's Restaurant & Coffee Club,restaurant,Food/Drink,7.1111599,125.6497285,low_confidence,distance=14328.7km>5.0km
447593926,La Piscine Grill & Cafe,restaurant,Food/Drink,7.0905141,125.615621,low_confidence,distance=15420.6km>5.0km
448786054,Bistro Van Gough,restaurant,Food/Drink,15.0853845,120.6345497,low_confidence,distance=10509.3km>5.0km
452356957,Rogues,bar,Food/Drink,14.5629053,121.028658,low_confidence,distance=9.8km>5.0km
452356963,Hollywood,bar,Food/Drink,14.5629467,121.0287989,low_confidence,distance=11733.6km>5.0km
452356965,Bourbon Street,bar,Food/Drink,14.5630121,121.0289381,low_confidence,distance=14047.9km>5.0km
452356994,Fridays,bar,Food/Drink,14.563686,121.0310478,low_confidence,distance=7.8km>5.0km
452375404,La Tienda,restaurant,Food/Drink,14.5623965,121.0293901,low_confidence,name_similarity=44
452903886,Jaltan Food Centrum,fast_food,Food/Drink,7.4475843,125.8094247,low_confidence,distance=48.1km>5.0km
453023114,Earl's Deli,restaurant,Food/Drink,14.5617043,121.0163941,low_confidence,distance=15.7km>5.0km
454089388,Subcamp Makatao,camp_site,Accommodation,14.1576429,121.227591,low_confidence,distance=30.6km>5.0km
454089755,Subcamp Luzon 1,camp_site,Accommodation,14.1619094,121.2266598,zero_results,ZERO_RESULTS
455911162,Sinbad,restaurant,Food/Drink,7.0688776,125.6130865,low_confidence,distance=166.0km>5.0km
458104744,Regrub Burgers,fast_food,Food/Drink,14.6043062,121.0799328,zero_results,ZERO_RESULTS
469173250,Warehauz 45,pub,Food/Drink,9.7397348,118.7542947,zero_results,ZERO_RESULTS
472267235,Don Henrico's,restaurant,Food/Drink,14.6169587,121.100696,low_confidence,distance=10.1km>5.0km
476259874,Asmara Restaurant and Bar,restaurant,Food/Drink,10.3448592,123.910608,low_confidence,name_similarity=56
477394967,Mountain Bayside,restaurant,Food/Drink,9.7734759,118.7287099,low_confidence,distance=13537.6km>5.0km
477394983,Coco Loko Beach,swimming_pool,Park/Nature,9.7685325,118.7255243,low_confidence,distance=17112.2km>5.0km
482984926,Cafe Lago,cafe,Food/Drink,14.0761639,121.3253357,low_confidence,distance=10713.6km>5.0km
484113864,Sizzlers,restaurant,Food/Drink,14.16959,121.2436512,low_confidence,distance=11.4km>5.0km
487267654,Ihaw-Ihaw sa Lawa,restaurant,Food/Drink,14.0817633,121.3258384,low_confidence,distance=46.3km>5.0km
489478574,Dao sa SU,attraction,Attraction,14.1629834,121.2413015,low_confidence,name_similarity=44
492082746,Big Nico's,restaurant,Food/Drink,14.1725294,121.2427732,low_confidence,distance=14363.1km>5.0km
492082906,Onyang's Street Wings,restaurant,Food/Drink,14.170526,121.2436264,low_confidence,distance=9.3km>5.0km
504408838,Visitors Center,tourist_info,Other,10.49415,124.9987798,low_confidence,distance=28.3km>5.0km
517062572,Tan Tan Men House,restaurant,Food/Drink,14.5564551,121.0191317,low_confidence,name_similarity=53
527825378,Subcamp Maka-Diyos,camp_site,Accommodation,14.1588153,121.2259073,zero_results,ZERO_RESULTS
527856461,Bonanza Hotel,hotel,Accommodation,15.1672382,120.5945684,low_confidence,distance=8875.7km>5.0km
529870796,Momzie's Enterprises,gift_shop,Retail,14.1658849,121.2443409,zero_results,ZERO_RESULTS
529870950,Trix and Trish Gift Shop,gift_shop,Retail,14.165846,121.2443542,zero_results,ZERO_RESULTS
529880801,Faustina's,restaurant,Food/Drink,14.1683393,121.2412576,zero_results,ZERO_RESULTS
530637672,G-Point,bar,Food/Drink,14.5774868,120.981732,low_confidence,name_similarity=57
558754573,Centerstage,bar,Food/Drink,14.6344597,121.0355737,low_confidence,distance=12.5km>5.0km
560226749,Pook ng Bilangguang Kampo sa Los Baños,memorial,Attraction,14.1617565,121.2424732,low_confidence,name_similarity=58
560410986,Gawad Kalinga Office,tourist_info,Other,14.836009,121.085158,low_confidence,distance=27.5km>5.0km
560411118,Dormitory,guesthouse,Accommodation,14.844084,121.093326,low_confidence,distance=24.2km>5.0km
560411215,BJN Bakeshop,bakery,Food/Drink,14.836081,121.077351,low_confidence,distance=13.6km>5.0km
560411230,Corino Bakery,bakery,Food/Drink,14.841547,121.093852,low_confidence,distance=10672.7km>5.0km
566526707,HR Tourist Hotel,hotel,Accommodation,10.3228762,123.9697186,low_confidence,distance=8.8km>5.0km
567945412,Blackbeard's Seafood Island,restaurant,Food/Drink,14.609392,121.0807758,low_confidence,distance=13.6km>5.0km
567945415,Pasto,restaurant,Food/Drink,14.6096077,121.0808231,low_confidence,distance=8.5km>5.0km
567945434,Outback Steakhouse,restaurant,Food/Drink,14.6091549,121.0803584,low_confidence,distance=5.7km>5.0km
569933357,Kamputi Resort (Puntahagdan Resort),hotel,Accommodation,10.5033015,121.9191447,low_confidence,name_similarity=52
582458308,Dhenzmer's Extension,restaurant,Food/Drink,14.1690989,121.2410936,zero_results,ZERO_RESULTS
582458481,Uncle Jet's Burger Joint,fast_food,Food/Drink,14.1687729,121.2414313,low_confidence,name_similarity=54
589671899,Gq Resto,restaurant,Food/Drink,14.7985792,120.9245599,low_confidence,distance=5683.4km>5.0km
589674180,Salakab Resto,restaurant,Food/Drink,14.788966,120.9309967,low_confidence,distance=20.7km>5.0km
589927778,Emily's Place,fast_food,Food/Drink,14.6245651,121.05194,low_confidence,distance=53.4km>5.0km
589927830,Kakosa,nightclub,Other,14.62488,121.0556796,low_confidence,distance=5137.5km>5.0km
590236752,RA Kambingan Ihaw-ihaw,fast_food,Food/Drink,14.6247954,121.051834,low_confidence,distance=90.5km>5.0km
591569227,Bonifacio Market,marketplace,Retail,14.7010295,121.0352534,low_confidence,distance=7.3km>5.0km
595991125,Relax Apartelle,motel,Accommodation,14.6206688,121.0607287,low_confidence,distance=5.1km>5.0km
597011714,Max's Restaurant,restaurant,Food/Drink,14.9030874,120.8682716,low_confidence,distance=10.9km>5.0km
597013128,Bonita Travel Inn,hotel,Accommodation,14.9152399,120.8719362,low_confidence,distance=35.3km>5.0km
598405175,Kalayaan Park,park,Park/Nature,14.4070724,120.976039,low_confidence,distance=24.4km>5.0km
602897733,Mayon Volcano Lahar Ruins,ruins,Attraction,13.231611,123.760371,low_confidence,distance=8.4km>5.0km
602897978,Andres Bonifacio Monument,memorial,Attraction,13.2368501,123.7770876,low_confidence,distance=340.3km>5.0km
602898034,Chatol Canteen,fast_food,Food/Drink,13.2373456,123.7777489,low_confidence,distance=38.0km>5.0km
603555859,RS Bakery,bakery,Food/Drink,11.6199758,124.3810045,low_confidence,distance=137.8km>5.0km
603589348,U.S. Airforce Del Monte Airfield,memorial,Attraction,8.393724,124.8495101,zero_results,ZERO_RESULTS
603661000,Meralco Museum,museum,Attraction,14.5894426,121.0659955,low_confidence,name_similarity=57
606538374,Sizzling & Combo Food Haus,restaurant,Food/Drink,14.1520406,121.2350804,low_confidence,distance=16.5km>5.0km
606588289,Greenwich,fast_food,Food/Drink,14.8181276,120.9058927,low_confidence,distance=9.8km>5.0km
606882062,Balue's Lomi House,fast_food,Food/Drink,13.9505231,121.1331643,low_confidence,distance=19.3km>5.0km
607656423,Refugio Lighthouse,lighthouse,Attraction,10.4692551,123.4482321,low_confidence,distance=13514.6km>5.0km
616012503,Smile Elephant,restaurant,Food/Drink,14.6210839,121.0925153,low_confidence,distance=6.5km>5.0km
621138952,Wow Cow Fresh Beef Hotpot,restaurant,Food/Drink,14.5374488,120.9791733,low_confidence,name_similarity=59
621177490,Amazing Cones,restaurant,Food/Drink,14.6139833,121.0374364,low_confidence,distance=13.6km>5.0km
625522978,Al Dente,restaurant,Food/Drink,10.699772,122.5566307,low_confidence,name_similarity=25
638551946,Maria Makiling Trail Station 3,tourist_info,Other,14.1464324,121.22992,low_confidence,name_similarity=33
642887078,Aristocrat Hotel,hotel,Accommodation,13.6212872,123.1847632,low_confidence,distance=3793.2km>5.0km
642887102,Naga Oyster,restaurant,Food/Drink,13.6217505,123.1854876,low_confidence,name_similarity=55
643328894,Punodaan,tourist_info,Other,14.1337538,121.2079161,zero_results,ZERO_RESULTS
643328926,Station 13,tourist_info,Other,14.1363184,121.2060063,low_confidence,distance=57.1km>5.0km
643329009,Station 19,tourist_info,Other,14.1389142,121.2001752,low_confidence,distance=35.1km>5.0km
643329024,Assault Start,tourist_info,Other,14.1393563,121.1990433,zero_results,ZERO_RESULTS
643329034,Station 22,tourist_info,Other,14.1382127,121.1978611,low_confidence,distance=11876.9km>5.0km
643329080,Station 29,tourist_info,Other,14.1358502,121.1940544,low_confidence,distance=732.8km>5.0km
644446455,Marabella Cafe,cafe,Food/Drink,14.5027558,121.0270256,low_confidence,distance=10795.0km>5.0km
650005385,Kinetsu Worlwide Express (T.I. Baguio),hotel,Accommodation,14.4913339,120.9921611,low_confidence,distance=213.8km>5.0km
650011050,Plaza Canteen,restaurant,Food/Drink,14.3859872,120.8799951,low_confidence,distance=7.8km>5.0km
650019048,322 Internet Cafe,cafe,Food/Drink,14.3815069,120.8784051,low_confidence,distance=12.3km>5.0km
650019053,G.S. Pagtakhan,fast_food,Food/Drink,14.3815239,120.8796067,low_confidence,distance=8.1km>5.0km
659954683,El Torro,restaurant,Food/Drink,13.7869864,121.0574348,low_confidence,distance=13427.2km>5.0km
660615521,Säntis,restaurant,Food/Drink,14.1432056,120.9556988,low_confidence,distance=10409.3km>5.0km
662710830,Space Burger,fast_food,Food/Drink,7.0705887,125.6050249,low_confidence,name_similarity=42
662711062,G Hotel,hotel,Accommodation,14.5657717,120.9849624,low_confidence,name_similarity=29
662714008,Tempura Sam,restaurant,Food/Drink,14.2921937,120.9081852,low_confidence,distance=6.5km>5.0km
662722006,Camp 9,camp_site,Accommodation,14.0406284,120.8028537,low_confidence,distance=97.9km>5.0km
662722007,Camp 8,camp_site,Accommodation,14.040996,120.8035496,low_confidence,distance=263.0km>5.0km
662722008,Camp 7,camp_site,Accommodation,14.04066,120.804901,low_confidence,distance=261.2km>5.0km
662722009,Peak 9,camp_site,Accommodation,14.0433893,120.8016275,low_confidence,distance=12338.2km>5.0km
662722011,Peak 6,camp_site,Accommodation,14.046925,120.803778,zero_results,ZERO_RESULTS
662722012,Peak 7,camp_site,Accommodation,14.046112,120.8034153,low_confidence,distance=12336.8km>5.0km
662722013,Peak 5,camp_site,Accommodation,14.0475308,120.8046225,low_confidence,distance=46.1km>5.0km
662722015,Peak 3,camp_site,Accommodation,14.049193,120.8053011,low_confidence,distance=2344.2km>5.0km
662722016,Camp 5,camp_site,Accommodation,14.0415275,120.8060562,low_confidence,distance=2429.6km>5.0km
662722017,Camp 6,camp_site,Accommodation,14.0413065,120.8059459,low_confidence,distance=69.6km>5.0km
662722018,Camp 2,camp_site,Accommodation,14.043034,120.806624,low_confidence,distance=87.2km>5.0km
662722019,Camp 4,camp_site,Accommodation,14.042089,120.806266,low_confidence,distance=90.0km>5.0km
662722020,Camp 3,camp_site,Accommodation,14.042653,120.806395,low_confidence,distance=247.9km>5.0km
662722021,Camp 1,camp_site,Accommodation,14.0435188,120.8071103,low_confidence,distance=11356.1km>5.0km
662722024,Peak 2,camp_site,Accommodation,14.0502407,120.8059324,low_confidence,distance=42.9km>5.0km
662727802,Simbahan ng Heneral Trias,memorial,Attraction,14.3856824,120.8801081,low_confidence,name_similarity=44
663136078,Escolta Cabagan Centro Beru bakery,bakery,Food/Drink,17.42629,121.762865,low_confidence,distance=17832.2km>5.0km
663186284,Plaza Canteen,fast_food,Food/Drink,11.7091559,122.362912,low_confidence,distance=339.6km>5.0km
663526605,Twins Beach Club,hotel,Accommodation,13.9595415,120.6169834,low_confidence,distance=10479.7km>5.0km
663526757,Robertson's apartelle,hotel,Accommodation,13.9593801,120.6172678,low_confidence,distance=61.5km>5.0km
663951891,BrewerTea,cafe,Food/Drink,14.4858136,121.027973,low_confidence,distance=5.9km>5.0km
664538137,Malipunyo Peak 1,camp_site,Accommodation,13.9668492,121.2398182,low_confidence,name_similarity=58
664538198,Clearing,picnic_site,Park/Nature,13.9679382,121.2401607,low_confidence,distance=69.9km>5.0km
664542317,Burj Point,tourist_info,Other,13.964718,121.2418345,low_confidence,distance=6959.1km>5.0km
664542388,Clearing,picnic_site,Park/Nature,13.9668592,121.2403315,low_confidence,distance=70.0km>5.0km
666130423,Queba Bar Grill,bar,Food/Drink,14.6124743,121.0377712,low_confidence,name_similarity=33
667569272,Calle Real,restaurant,Food/Drink,14.4099971,120.878052,low_confidence,distance=13.0km>5.0km
667569274,Urashima,restaurant,Food/Drink,14.4103882,120.8782489,low_confidence,distance=2796.8km>5.0km
667578133,Porterhouse,pub,Food/Drink,14.3955537,120.8631159,low_confidence,distance=11.5km>5.0km
668027224,Bondoc's Bakery,fast_food,Food/Drink,15.2239046,120.5742469,low_confidence,name_similarity=53
668950859,Kapatagan Travelers Fastfood,fast_food,Food/Drink,6.9291167,125.3433,low_confidence,name_similarity=38
669266822,Fontana Leisure Complex,hotel,Accommodation,15.1943617,120.5086858,low_confidence,name_similarity=57
669266823,The Water Park,attraction,Attraction,15.1941784,120.5108242,low_confidence,name_similarity=39
671849902,Batis Azul,restaurant,Food/Drink,15.1307688,120.5973566,zero_results,ZERO_RESULTS
671855679,Junior KTV,bar,Food/Drink,14.6333709,121.0940249,low_confidence,distance=5.7km>5.0km
671855684,Emer's,bar,Food/Drink,14.6334854,121.094013,low_confidence,distance=12.5km>5.0km
671855698,Pondahan ni Pugo,bar,Food/Drink,14.633885,121.09395,low_confidence,distance=37.7km>5.0km
671855700,Okavango,bar,Food/Drink,14.6341313,121.093919,low_confidence,distance=11847.3km>5.0km
671855702,BoraFire,bar,Food/Drink,14.6342321,121.093907,low_confidence,distance=24.1km>5.0km
672565496,Ecopark Paging and First Aid Station,tourist_info,Other,14.7117001,121.0748042,zero_results,ZERO_RESULTS
672565497,Ecopark Ihaw- Ihaw Food Counter,fast_food,Food/Drink,14.711518,121.074542,low_confidence,name_similarity=50
672565498,Ecopark Ticket Counter,tourist_info,Other,14.7129272,121.0731235,low_confidence,distance=3536.5km>5.0km
674063986,Kopi Roti,cafe,Food/Drink,14.5617704,121.0160401,low_confidence,distance=9.0km>5.0km
674067045,YMCA Hostel,hostel,Accommodation,14.5647018,121.0134471,low_confidence,name_similarity=55
675569694,Luxur Place,hotel,Accommodation,10.6528436,122.9425468,low_confidence,name_similarity=30
675697077,Armed Forces Museum of the Province of Tarlac,museum,Attraction,15.4352483,120.5985286,low_confidence,distance=18.9km>5.0km
675699804,Burger Machine,fast_food,Food/Drink,15.4504399,120.5988703,low_confidence,distance=17.4km>5.0km
676282827,Sérye,restaurant,Food/Drink,14.4571938,121.0361322,zero_results,ZERO_RESULTS
676298573,Monte Carlo Resort,hotel,Accommodation,13.7567459,120.924179,low_confidence,distance=10743.0km>5.0km
676298649,El Sombrero Resort,hotel,Accommodation,13.7506391,120.9040517,low_confidence,distance=9.1km>5.0km
676298650,Anilao Outrigger,hotel,Accommodation,13.7542865,120.9079784,low_confidence,name_similarity=56
676300209,Balai Resort,hotel,Accommodation,13.6923767,120.8886237,low_confidence,distance=64.1km>5.0km
676300244,Maya Resort,hotel,Accommodation,13.7033216,120.8816929,low_confidence,distance=3577.0km>5.0km
676864319,New Moon,pub,Food/Drink,10.6494773,122.9383683,low_confidence,distance=183.0km>5.0km
677321864,Reyes Stop Shop Bakery,bakery,Food/Drink,14.0159923,121.4009527,low_confidence,distance=21.5km>5.0km
677340655,Acacia Grill,restaurant,Food/Drink,10.6796324,122.9577232,low_confidence,distance=99.4km>5.0km
677671021,Rib Eye,restaurant,Food/Drink,15.1640066,120.5894405,low_confidence,name_similarity=57
678241462,Max's Fried Chicken,restaurant,Food/Drink,15.9453854,120.5800056,low_confidence,name_similarity=50
678982801,InBoost,cafe,Food/Drink,9.6459896,123.8528672,zero_results,ZERO_RESULTS
678982868,East Coast,hotel,Accommodation,9.6441482,123.8565151,low_confidence,distance=14251.0km>5.0km
678983022,doodz@yahoo,cafe,Food/Drink,9.6464501,123.85247,zero_results,ZERO_RESULTS
678983394,Mercy & Gloria Eatery,fast_food,Food/Drink,9.6739999,123.8533709,low_confidence,distance=14156.3km>5.0km
679162554,Bantayan sa Hari,ruins,Attraction,10.6197677,124.3569319,low_confidence,distance=55.0km>5.0km
679181865,Kingcrab Seafoods Restaurant,restaurant,Food/Drink,15.1373103,120.5645852,low_confidence,name_similarity=56
679207343,Fuente Pension House,hotel,Accommodation,10.3110691,123.8940603,low_confidence,name_similarity=50
679207376,Mandaue Food Festival,fast_food,Food/Drink,10.3250916,123.9445573,low_confidence,name_similarity=34
679207388,BR Town Square,mall,Retail,10.3357868,123.9507157,low_confidence,distance=11964.9km>5.0km
679251307,Camalig,restaurant,Food/Drink,15.1353857,120.5891622,low_confidence,distance=395.5km>5.0km
679754121,Comiles Cafe,cafe,Food/Drink,16.2540083,120.5521583,low_confidence,distance=22.3km>5.0km
679754797,Camp 3 Eatery,restaurant,Food/Drink,16.2909732,120.5892756,low_confidence,name_similarity=46
681253924,Red Paint Bar & Grill,restaurant,Food/Drink,14.6336504,121.084803,low_confidence,distance=9.8km>5.0km
683055022,La Jardin de Virgilia,restaurant,Food/Drink,14.059924,121.3162059,zero_results,ZERO_RESULTS
687160619,Franks N' Burger,fast_food,Food/Drink,14.363991,121.4832263,low_confidence,distance=33.4km>5.0km
687167856,Viewpoint Taal Lake,viewpoint,Attraction,13.881388,121.0019573,low_confidence,distance=24.0km>5.0km
687167857,Viewpoint Taal Lake,viewpoint,Attraction,13.8794715,120.9998545,low_confidence,distance=24.2km>5.0km
687167858,Viewpoint Taal Lake,viewpoint,Attraction,13.8772218,120.9858212,low_confidence,distance=24.3km>5.0km
687425467,Kapok Tree,attraction,Attraction,14.1638973,121.2412548,zero_results,ZERO_RESULTS
688358400,Jo's Chicken Inato,restaurant,Food/Drink,10.6701817,122.9542258,low_confidence,distance=44.2km>5.0km
689884645,D' Breakers,restaurant,Food/Drink,10.6713809,122.9476902,low_confidence,distance=28.7km>5.0km
690254409,Miyabe Court,hostel,Accommodation,15.1651293,120.6003702,low_confidence,distance=18.3km>5.0km
690371865,Bobbit Theater,theatre,Attraction,15.1895109,120.5249579,low_confidence,name_similarity=29
691388701,Q9,fast_food,Food/Drink,14.0717606,121.3269438,low_confidence,distance=13728.5km>5.0km
692735816,Casa Basiliensis,viewpoint,Attraction,13.8658905,120.9175482,low_confidence,distance=10534.7km>5.0km
693177098,Dr. Jose Rizal,memorial,Attraction,12.5759759,122.2697871,low_confidence,distance=217.7km>5.0km
693234720,Active Fun,theme_park,Attraction,14.5875425,121.0783253,low_confidence,distance=5.1km>5.0km
693234726,Big Red Barn,restaurant,Food/Drink,14.5876213,121.078156,low_confidence,distance=14151.4km>5.0km
693234739,Leaps n' Bounds,theme_park,Attraction,14.5878708,121.0781839,low_confidence,distance=13515.7km>5.0km
696288738,Goat for Sale 24hours,fast_food,Food/Drink,14.618441,121.092054,low_confidence,name_similarity=43
696288752,JEE Lapids Chicharific,fast_food,Food/Drink,14.618405,121.091682,low_confidence,name_similarity=59
696288774,Bakahan at Manukan,restaurant,Food/Drink,14.6192747,121.0965895,low_confidence,distance=13.7km>5.0km
696288816,Kowloon West,fast_food,Food/Drink,14.6194501,121.0969739,low_confidence,distance=1124.4km>5.0km
696288984,Pan de Pugon,bakery,Food/Drink,14.621532,121.1070401,low_confidence,distance=5.5km>5.0km
696289042,Mama Lily!,restaurant,Food/Drink,14.622453,121.10915,low_confidence,distance=42.6km>5.0km
696289057,Charlie Wanton Chinese Restaurant,restaurant,Food/Drink,14.6220788,121.1099607,low_confidence,distance=9.2km>5.0km
696289117,Golden Bibi at Iba Pa Restaurant,restaurant,Food/Drink,14.62273,121.11242,low_confidence,distance=13638.9km>5.0km
696289131,J2 Travel & Tours,travel_agent,Retail,14.6234445,121.0932634,low_confidence,distance=9.2km>5.0km
696289142,Barbecue ni Suki,restaurant,Food/Drink,14.626492,121.096855,low_confidence,name_similarity=38
696289236,Jassy Bar & Restaurant,bar,Food/Drink,14.6232599,121.1129102,low_confidence,distance=5.3km>5.0km
696289244,Oblique Theater Club,nightclub,Other,14.6229329,121.1113009,low_confidence,distance=13059.9km>5.0km
696289259,Night Session Club & KTV,nightclub,Other,14.622845,121.113035,low_confidence,distance=15.0km>5.0km
696289484,Baliwag,fast_food,Food/Drink,14.6249504,121.1235256,low_confidence,distance=45.2km>5.0km
696289543,Honey Restobar,bar,Food/Drink,14.624057,121.124899,low_confidence,distance=242.8km>5.0km
698360186,Viewpoint to taal lake,viewpoint,Attraction,13.8838663,121.0139494,low_confidence,distance=24.0km>5.0km
699353607,SM Movietime,cinema,Attraction,10.6701809,122.9441928,low_confidence,name_similarity=50
699376986,Golden Lion,restaurant,Food/Drink,10.6704066,122.9458205,low_confidence,distance=14858.1km>5.0km
700949437,St Joseph Bakery,bakery,Food/Drink,14.4897024,121.1847228,low_confidence,distance=7.5km>5.0km
701722579,Viewpoint to Taal Lake,viewpoint,Attraction,13.9576052,121.0779911,low_confidence,distance=19.9km>5.0km
701722580,View to Taal Lake,viewpoint,Attraction,13.9585068,121.0745422,low_confidence,distance=18.8km>5.0km
701810284,Greenviews Resort,hotel,Accommodation,11.1629829,119.397721,low_confidence,distance=86.3km>5.0km
701860921,Tom Tom Club,restaurant,Food/Drink,9.7365837,118.7486444,low_confidence,name_similarity=50
701970797,Abyss Divers,hotel,Accommodation,9.7301404,124.5545407,low_confidence,distance=132.2km>5.0km
702533353,Hard Climb Node,tourist_info,Other,13.9205649,121.0420263,zero_results,ZERO_RESULTS
702536655,Halo-Halo,fast_food,Food/Drink,13.9152168,121.0439454,low_confidence,distance=33.6km>5.0km
702562352,Mini Shabu-Shabu,restaurant,Food/Drink,14.5498186,121.0526157,low_confidence,distance=5.4km>5.0km
702562365,Cav,restaurant,Food/Drink,14.5507811,121.0515965,low_confidence,distance=5.4km>5.0km
703029884,Olsen's,bakery,Food/Drink,10.6702795,122.9459967,low_confidence,distance=5.1km>5.0km
703062280,Ereneos Mountain view Restaurant,restaurant,Food/Drink,13.9150317,121.0711896,low_confidence,distance=27.5km>5.0km
704223563,Zong,restaurant,Food/Drink,14.2481264,121.0654506,low_confidence,distance=5277.4km>5.0km
723886490,Chowking,fast_food,Food/Drink,13.9604252,121.1462063,low_confidence,name_similarity=25
725975879,Panglao Island Nature Resort,hotel,Accommodation,9.6232618,123.8018705,low_confidence,name_similarity=50
726788719,Sip 'n Chat Coffee Bar,cafe,Food/Drink,11.0145471,124.5950511,low_confidence,distance=20.1km>5.0km
727617461,Shangri-La,restaurant,Food/Drink,14.6387463,121.0269279,low_confidence,distance=9.8km>5.0km
730607920,Buendias' Transient Apts,guesthouse,Accommodation,16.4051313,120.5938107,low_confidence,distance=210.0km>5.0km
730607933,Baliwag,fast_food,Food/Drink,16.412797,120.593352,low_confidence,distance=164.1km>5.0km
734988589,Doloras Pantalan Grill,restaurant,Food/Drink,14.6238322,121.101782,low_confidence,name_similarity=55
734988596,Mom's Kitchen Diner,restaurant,Food/Drink,14.6225239,121.0973579,low_confidence,distance=13663.0km>5.0km
737711491,Mixed Nuts/Birdies Cage,bar,Food/Drink,14.5637894,121.0307824,low_confidence,name_similarity=46
745931467,Centennial Marker,memorial,Attraction,11.0038051,124.6093753,low_confidence,distance=560.0km>5.0km
746014035,Avis Rent-a-Car,car_rental,Other,14.5796871,121.0458023,low_confidence,name_similarity=40
746920920,BlueFrog,restaurant,Food/Drink,14.5857626,121.0657642,low_confidence,distance=12819.0km>5.0km
746920987,Bugsy's Bar & Bistro,bar,Food/Drink,14.5845675,121.0674366,low_confidence,distance=5.6km>5.0km
747885505,Traveller's Fast Food,restaurant,Food/Drink,7.6045529,125.163091,low_confidence,name_similarity=58
747886748,Dose,restaurant,Food/Drink,7.1420514,125.6612876,low_confidence,distance=8.9km>5.0km
750679518,Colette Buko Pie,bakery,Food/Drink,14.4635917,120.9603476,low_confidence,distance=36.6km>5.0km
750692739,BR Town Square,bar,Food/Drink,10.3357815,123.9507062,zero_results,ZERO_RESULTS
757457115,KFC,fast_food,Food/Drink,14.8571148,120.8123895,low_confidence,distance=5.3km>5.0km
760166767,Teresita's by Razon's,fast_food,Food/Drink,14.6365536,121.0286591,low_confidence,distance=7.7km>5.0km
760169530,Coconut House,restaurant,Food/Drink,14.6517541,121.0506929,low_confidence,distance=26.1km>5.0km
760849582,Nanay Bebeng's,restaurant,Food/Drink,7.0786157,125.6047633,low_confidence,distance=14.7km>5.0km
760872675,Vimarie Food House,restaurant,Food/Drink,14.1697035,121.2438128,zero_results,ZERO_RESULTS
761209087,Bersabal Camp,guesthouse,Accommodation,7.08866,125.637892,zero_results,ZERO_RESULTS
762080028,UPLB Campus Map Board,tourist_info,Other,14.1668377,121.2436914,low_confidence,name_similarity=38
764088946,Sea of Galilee Crab House,restaurant,Food/Drink,6.1221175,125.1904325,low_confidence,distance=14466.5km>5.0km
764089915,Hill Side,restaurant,Food/Drink,6.405843,124.8832412,low_confidence,distance=81.0km>5.0km
764090176,Villagio,restaurant,Food/Drink,6.2000018,125.0793494,low_confidence,distance=14503.2km>5.0km
764090216,Buhay Bario,restaurant,Food/Drink,6.1560315,125.1237764,low_confidence,distance=6.4km>5.0km
764090453,Jay's Lechon,restaurant,Food/Drink,6.2016067,125.0769697,low_confidence,distance=209.4km>5.0km
764091818,AVL Restaurant,restaurant,Food/Drink,6.1301738,125.1984856,low_confidence,name_similarity=50
764092861,Pansaymada,bakery,Food/Drink,6.2191628,125.0602739,low_confidence,name_similarity=22
764093652,Wa Ki Restaurant,restaurant,Food/Drink,7.0604287,125.5643874,low_confidence,distance=5.8km>5.0km
764539876,Tide's Bar,pub,Food/Drink,14.4556137,121.0128761,low_confidence,distance=22.3km>5.0km
764539882,Little Rio,restaurant,Food/Drink,14.4561866,121.0088234,low_confidence,distance=20.0km>5.0km
764539886,Toto's Lechon,restaurant,Food/Drink,14.4557386,121.011544,low_confidence,distance=39.0km>5.0km
764539893,Food De' Sentosa,restaurant,Food/Drink,14.4558655,121.0103224,low_confidence,distance=2392.1km>5.0km
764539895,The Red Lion Pub,pub,Food/Drink,14.4559259,121.0093377,low_confidence,distance=91.3km>5.0km
764539900,Aucklands Family Restaurant,restaurant,Food/Drink,14.4554586,121.0137471,low_confidence,distance=8011.6km>5.0km
764539905,Min Restaurant,restaurant,Food/Drink,14.455892,121.0095349,low_confidence,name_similarity=50
764556721,Jocos Cassava Cake,bakery,Food/Drink,14.1687717,121.1378024,low_confidence,distance=104.5km>5.0km
764556745,Clarte's Pizza,restaurant,Food/Drink,14.17028,121.1377273,zero_results,ZERO_RESULTS
764556746,Ate Emms Goto,restaurant,Food/Drink,14.1526317,121.1365245,low_confidence,distance=6.6km>5.0km
764556748,Colettes,gift_shop,Retail,14.1501262,121.135981,low_confidence,distance=5.2km>5.0km
764556758,Colletes,gift_shop,Retail,14.1467659,121.1351986,low_confidence,distance=6.2km>5.0km
767038305,Cafe Antonio,cafe,Food/Drink,14.1766693,121.2518849,low_confidence,distance=13743.8km>5.0km
767038308,Copacabana Resto Bar,restaurant,Food/Drink,14.169235,121.244912,low_confidence,distance=18247.8km>5.0km
767038331,Mommy Ludy's Cuisine,restaurant,Food/Drink,14.1694818,121.244798,low_confidence,distance=41.9km>5.0km
767038334,KumPARES,restaurant,Food/Drink,14.1696359,121.2446187,low_confidence,distance=12.8km>5.0km
767059710,Rajah Sikatuna,artwork,Attraction,14.6348866,121.0587488,low_confidence,distance=641.3km>5.0km
767602456,Felice,hotel,Accommodation,9.5576327,123.8052174,low_confidence,distance=57.0km>5.0km
767602457,The Cabs,hotel,Accommodation,9.557273,123.8056036,zero_results,ZERO_RESULTS
771210108,Cherub Breadmart,bakery,Food/Drink,14.0690142,121.3255628,low_confidence,distance=286.4km>5.0km
771210111,Cool Ambianz,fast_food,Food/Drink,14.0693621,121.3250495,zero_results,ZERO_RESULTS
772359527,Caiyod Nicasia,guesthouse,Accommodation,14.3642329,121.4845277,zero_results,ZERO_RESULTS
772366570,Pancit Africano,restaurant,Food/Drink,14.3642538,121.482545,low_confidence,distance=53.4km>5.0km
773882626,Marabut Xtreme Experience,attraction,Attraction,11.1970051,125.1823423,zero_results,ZERO_RESULTS
774613029,Delica's Garden Grill & Business Center,restaurant,Food/Drink,13.7705383,121.0651293,low_confidence,distance=14734.6km>5.0km
774613072,Midnight Kizz KTV & Bar,pub,Food/Drink,13.7703672,121.0652193,low_confidence,distance=88.2km>5.0km
774613086,Riggs Cafe Bar & Restaurant,restaurant,Food/Drink,13.7703455,121.0650166,low_confidence,distance=13864.4km>5.0km
778771035,Father Michael J. McGivney,memorial,Attraction,14.0699941,121.3267367,low_confidence,distance=13685.9km>5.0km
790107089,Herb Republic,restaurant,Food/Drink,14.1759237,121.2427076,low_confidence,name_similarity=23
791218603,Mio Cantina,restaurant,Food/Drink,14.1721378,121.2433414,low_confidence,distance=13084.5km>5.0km
796622342,Woodstock,restaurant,Food/Drink,14.3651671,121.4834207,low_confidence,distance=49.1km>5.0km
799928251,MDLD Hotel,hotel,Accommodation,15.0153444,120.7039188,zero_results,ZERO_RESULTS
799928310,MDLD Grocery,restaurant,Food/Drink,15.0152355,120.7040126,low_confidence,distance=5.7km>5.0km
800056386,80 metres,viewpoint,Attraction,14.9140637,120.058757,zero_results,ZERO_RESULTS
819080542,Green Kitchen Restaurant,restaurant,Food/Drink,15.1032295,120.6171902,low_confidence,distance=8.1km>5.0km
824317168,Haliwood Inn,hotel,Accommodation,12.4005795,121.9849205,low_confidence,distance=11829.0km>5.0km
827172358,Janina's Kitchen,fast_food,Food/Drink,14.5787185,121.0479277,low_confidence,distance=4691.7km>5.0km
827172675,Juan's Diner,fast_food,Food/Drink,14.5789548,121.04647,low_confidence,name_similarity=42
829759499,Big Star,restaurant,Food/Drink,14.1680365,121.2415258,low_confidence,distance=32.3km>5.0km
837187545,Cafe Restaurant,cafe,Food/Drink,15.0957821,120.6244534,low_confidence,name_similarity=40
837193850,Burj Point,tourist_info,Other,14.0577156,121.4358857,low_confidence,distance=6974.8km>5.0km
837193904,Clearing,tourist_info,Other,14.0594036,121.4330341,low_confidence,distance=71.0km>5.0km
837193915,Clearing,tourist_info,Other,14.061521,121.430719,low_confidence,distance=70.7km>5.0km
837193954,Clearing,tourist_info,Other,14.0604598,121.4316094,low_confidence,distance=70.8km>5.0km
837194008,Clearing,tourist_info,Other,14.0589499,121.4341653,low_confidence,distance=71.1km>5.0km
839726979,101 Botique,gift_shop,Retail,14.1684222,121.2440492,low_confidence,name_similarity=55
843188013,Red Dragon Rest,restaurant,Food/Drink,14.6515283,120.9831658,low_confidence,distance=44.8km>5.0km
846904580,Akira Sushi & Tepanyaki,restaurant,Food/Drink,14.552297,121.0445687,low_confidence,distance=13671.9km>5.0km
846904625,Gambino,restaurant,Food/Drink,14.5523909,121.0446867,zero_results,ZERO_RESULTS
846904649,Sunrise Buckets,restaurant,Food/Drink,14.5524296,121.0448429,low_confidence,distance=5.3km>5.0km
858629468,San Pablo Restaurant & Catering,restaurant,Food/Drink,14.9680102,120.6216016,low_confidence,distance=127.5km>5.0km
858758207,Panlilio Heritage Home,museum,Attraction,15.0167448,120.5796422,low_confidence,distance=12.3km>5.0km
860960378,Spoliarium,artwork,Attraction,14.5869073,120.981291,low_confidence,name_similarity=40
862702921,Parisian Life,artwork,Attraction,14.5475946,120.9845333,zero_results,ZERO_RESULTS
864688175,Trellis,restaurant,Food/Drink,14.5487332,121.0561367,low_confidence,distance=10.7km>5.0km
867678798,The Tent,restaurant,Food/Drink,13.6336389,123.1947136,low_confidence,distance=255.9km>5.0km
869743305,Encarnation Heritage Home,museum,Attraction,14.9607694,120.631859,low_confidence,distance=291.3km>5.0km
869744097,Loreta Razon Heritage,museum,Attraction,14.9617872,120.6308861,low_confidence,name_similarity=57
870546203,Aji Ramen Sushi Donburi,restaurant,Food/Drink,15.0539094,120.661082,low_confidence,distance=13.7km>5.0km
871443906,6A Gabe,guesthouse,Accommodation,15.0465905,120.6810781,low_confidence,distance=49.4km>5.0km
871455207,Wow Mani,cafe,Food/Drink,15.0469841,120.6766176,low_confidence,name_similarity=38
873863521,Pancit & Hot Pandesal,cafe,Food/Drink,15.0622272,120.6520467,low_confidence,name_similarity=41
873891740,Songdo-won+Jinmateu,restaurant,Food/Drink,14.5451563,120.988018,low_confidence,distance=11.8km>5.0km
875771068,Martinez Public Market (Tibagan),marketplace,Retail,14.8594618,120.9750546,low_confidence,distance=31.7km>5.0km
884248729,Gotobox,fast_food,Food/Drink,14.5823639,120.9841603,low_confidence,distance=19.3km>5.0km
884461159,Fortune Chinese Restaurant,restaurant,Food/Drink,14.8543438,120.8147504,low_confidence,name_similarity=52
884461904,Yellow Cab,restaurant,Food/Drink,14.8546701,120.8144509,low_confidence,distance=7.8km>5.0km
896295346,Dada's Restobar,pub,Food/Drink,11.0043474,124.6099988,low_confidence,distance=528.8km>5.0km
896295414,Mabsky Manina's Food Haus,biergarten,Food/Drink,11.0042614,124.6099711,low_confidence,distance=39.0km>5.0km
896627182,Villa Pastora,guesthouse,Accommodation,11.9489013,121.9324846,low_confidence,distance=331.2km>5.0km
898465426,Pedericos pizza,fast_food,Food/Drink,9.8820738,123.6058528,low_confidence,distance=56.2km>5.0km
899101450,Buns and Pizza,fast_food,Food/Drink,11.0070145,124.6079386,low_confidence,distance=121.8km>5.0km
899383360,Limpiado Memorial,memorial,Attraction,11.5637168,124.275134,low_confidence,distance=13.2km>5.0km
899383419,Limpiado Residence,ruins,Attraction,11.5638359,124.2752461,low_confidence,distance=477.6km>5.0km
901203254,"Mayong's, Terminal",bakery,Food/Drink,11.0051448,124.6078416,low_confidence,name_similarity=56
901299005,3M Pensionne,hotel,Accommodation,11.0248123,124.5988444,zero_results,ZERO_RESULTS
907376400,Las Vegas Hotel,hotel,Accommodation,10.3985286,125.2004532,low_confidence,distance=11857.8km>5.0km
910299163,Taal View Deck,viewpoint,Attraction,14.0948941,120.9345667,low_confidence,distance=9.1km>5.0km
913543895,Nelson Ballon,cafe,Food/Drink,15.1370317,120.5879663,zero_results,ZERO_RESULTS
914812173,Pandan Market,marketplace,Retail,11.7198756,122.0940216,low_confidence,distance=2317.7km>5.0km
915010728,Vienna Bistro & Bar,bar,Food/Drink,11.5245356,122.0840194,low_confidence,distance=15185.8km>5.0km
915046411,Jesus on the cross,artwork,Attraction,11.5900375,122.1024089,low_confidence,distance=25.5km>5.0km
915086037,Threshold Foodyard,fast_food,Food/Drink,11.9276239,121.9506864,low_confidence,distance=13537.5km>5.0km
916320336,King Beach Resort,swimming_pool,Park/Nature,14.3440997,120.7798135,low_confidence,distance=46.2km>5.0km
917839714,Franks n' Burgers,fast_food,Food/Drink,14.2242298,120.968686,low_confidence,distance=7.9km>5.0km
917839724,Villa Felicidad,hotel,Accommodation,14.24304,120.9759199,low_confidence,distance=8.4km>5.0km
917839725,Villa Luz,hotel,Accommodation,14.2420285,120.9751685,low_confidence,distance=16.7km>5.0km
917877527,Mouse Haus,cafe,Food/Drink,14.2839664,120.9991921,low_confidence,distance=18.1km>5.0km
920335379,Ampitheatre,theatre,Attraction,16.6078638,120.2862197,low_confidence,distance=42.3km>5.0km
920422598,Tomb of the Unknown Soldiers,memorial,Attraction,16.5966135,120.3187056,low_confidence,distance=13586.6km>5.0km
921100445,Ocean Edge,biergarten,Food/Drink,16.6566574,120.319627,low_confidence,distance=13431.1km>5.0km
921101290,Gaijin,restaurant,Food/Drink,16.6568945,120.3213695,low_confidence,distance=177.3km>5.0km
921103857,Elpidio Quirino Monument,memorial,Attraction,16.4278666,120.3499641,low_confidence,distance=218.1km>5.0km
921127178,USAFFE Monument,monument,Attraction,14.3224397,120.7718344,low_confidence,distance=31.1km>5.0km
923902471,Tauruz Bakery,bakery,Food/Drink,14.2733514,120.7541775,low_confidence,distance=16.4km>5.0km
923948006,Marites and Joel Bakery,bakery,Food/Drink,14.2911683,120.7164392,low_confidence,distance=10788.9km>5.0km
924081079,Cell Site,tower,Attraction,14.1889255,120.757858,low_confidence,distance=19.0km>5.0km
924127401,Vennina Resort,swimming_pool,Park/Nature,14.1782762,120.9294881,low_confidence,distance=26.2km>5.0km
925986439,Ate Bading's Carinderia,fast_food,Food/Drink,14.6351262,121.1091984,low_confidence,distance=14.1km>5.0km
925986479,Tibok's Eatery 2,fast_food,Food/Drink,14.6355155,121.1088765,zero_results,ZERO_RESULTS
926968096,Mandarin,restaurant,Food/Drink,15.0284955,120.6943982,low_confidence,distance=14.2km>5.0km
927718500,Bob's Halu-halo,fast_food,Food/Drink,14.6175625,121.0157107,low_confidence,distance=5.4km>5.0km
927728553,Antonpie,guesthouse,Accommodation,15.0676028,120.6523148,zero_results,ZERO_RESULTS
927893572,KM33 Zipline,viewpoint,Attraction,10.4316704,123.776966,zero_results,ZERO_RESULTS
929190381,Sabel Roast,restaurant,Food/Drink,15.0400281,120.6822922,low_confidence,distance=59.4km>5.0km
931621497,Obmat City Sports Arena,stadium,Park/Nature,14.1772349,120.8592957,low_confidence,distance=23.5km>5.0km
931621508,Villa Domingo Forest Resort,swimming_pool,Park/Nature,14.1691941,120.8604769,low_confidence,distance=16736.3km>5.0km
931621535,Lost Eden Springs Resort,swimming_pool,Park/Nature,14.1737351,120.8604471,low_confidence,distance=13602.2km>5.0km
935959371,Maghirang Bar,bar,Food/Drink,14.0706224,121.3294947,low_confidence,distance=42.9km>5.0km
936153304,Fortside Manok,restaurant,Food/Drink,10.713984,122.5553667,low_confidence,name_similarity=50
939759250,Acuaria,restaurant,Food/Drink,9.7022003,122.3889935,zero_results,ZERO_RESULTS
941066412,Morning Shine Restaurant,restaurant,Food/Drink,14.3932035,120.8641501,low_confidence,distance=14014.2km>5.0km
941393768,Ellen's Eatery,fast_food,Food/Drink,14.6286033,121.0820514,low_confidence,distance=11.2km>5.0km
941393812,Marikina Universal Bakery,bakery,Food/Drink,14.6327838,121.0827052,low_confidence,name_similarity=27
942491237,Kambal Inasal,fast_food,Food/Drink,10.6934405,122.5715146,low_confidence,distance=675.2km>5.0km
942491844,Fort Manokan,restaurant,Food/Drink,10.6880451,122.5799991,low_confidence,distance=7.2km>5.0km
942493681,Tibiao,bakery,Food/Drink,10.7017849,122.5679029,low_confidence,distance=84.7km>5.0km
942506036,David Tea House,cafe,Food/Drink,10.7054521,122.552023,low_confidence,distance=443.3km>5.0km
944771405,Ramon Magsaysay Bust,memorial,Attraction,15.2817977,120.0337307,low_confidence,distance=42.1km>5.0km
945030692,Maria Makiling Trail Station 5,tourist_info,Other,14.1386546,121.2317408,low_confidence,name_similarity=57
945030737,Maria Makiling Trail Station 2,tourist_info,Other,14.1480594,121.2318266,low_confidence,name_similarity=33
946401073,Talipapa Wet Market,marketplace,Retail,15.0781836,120.6418737,low_confidence,distance=62.0km>5.0km
946518681,Damiana's Kitchen,restaurant,Food/Drink,14.5550537,121.0190465,low_confidence,distance=10.4km>5.0km
948087973,Savory,restaurant,Food/Drink,14.5187767,121.0178448,low_confidence,distance=5.4km>5.0km
948650358,GV Pension House,guesthouse,Accommodation,11.0124159,124.6088959,low_confidence,name_similarity=53
948650437,Amber Mia's Pension House,guesthouse,Accommodation,11.0116867,124.6086663,zero_results,ZERO_RESULTS
949366035,Tañong Bakery,bakery,Food/Drink,14.6343093,121.0867991,low_confidence,name_similarity=19
950619324,Tsoko.NUT Batirol,restaurant,Food/Drink,14.6097289,121.0789393,low_confidence,distance=6.3km>5.0km
950619451,Costa Coffee,cafe,Food/Drink,14.6088494,121.0804572,low_confidence,distance=9.6km>5.0km
950619581,Tim Hortons,cafe,Food/Drink,14.6101654,121.0789704,low_confidence,distance=10.3km>5.0km
950807286,Spot Map Barangay Mabini,tourist_info,Other,11.5642181,124.2743603,low_confidence,name_similarity=49
950807311,Spot Map Barangay Libertad,tourist_info,Other,11.5703653,124.2712597,low_confidence,distance=73.1km>5.0km
951497190,Biak na Mukha,viewpoint,Attraction,14.8168113,121.1779012,low_confidence,distance=10.0km>5.0km
954779163,Rekado Atbp.,restaurant,Food/Drink,14.5618016,121.0164747,low_confidence,distance=8343.0km>5.0km
955522871,Long Life Bakery,bakery,Food/Drink,14.630251,120.9959706,low_confidence,name_similarity=40
955522877,Wild Indigo Kitchen + Cafe,restaurant,Food/Drink,14.631298,120.9982412,low_confidence,distance=13983.0km>5.0km
957123586,Seafood Island,restaurant,Food/Drink,14.6203756,121.0554424,low_confidence,distance=12.4km>5.0km
957223873,Max's Chicken,restaurant,Food/Drink,14.6193987,121.0563523,low_confidence,name_similarity=54
957926824,Flamingo Lake Resort,hotel,Accommodation,14.087818,121.0071066,low_confidence,distance=14497.7km>5.0km
963008842,Burger Machine,fast_food,Food/Drink,15.168381,120.5991345,low_confidence,distance=7.4km>5.0km
965598329,Panciteria ni Edong,restaurant,Food/Drink,14.6230035,121.0990406,low_confidence,distance=9.1km>5.0km
965598357,David's Teahouse and Hot Pot,restaurant,Food/Drink,14.6198354,121.1030047,low_confidence,distance=7.4km>5.0km
965933969,Burger Machine,fast_food,Food/Drink,14.1357451,121.135587,low_confidence,distance=8.5km>5.0km
965933981,Masbate Eatery,restaurant,Food/Drink,14.1013886,121.1561789,low_confidence,distance=329.6km>5.0km
967510699,Baliwag,fast_food,Food/Drink,14.6618288,121.0440341,low_confidence,distance=37.4km>5.0km
970219082,La Vigia,restaurant,Food/Drink,10.9883178,124.6205942,low_confidence,name_similarity=25
974331388,Suntop Bakery,bakery,Food/Drink,14.650625,121.1033765,low_confidence,distance=6386.8km>5.0km
974331531,Senor Pedro Lechon,fast_food,Food/Drink,14.650474,121.1066212,low_confidence,distance=9.7km>5.0km
975764022,Palabok Delight,fast_food,Food/Drink,14.705353,121.0824152,low_confidence,distance=16.2km>5.0km
975857322,Manong,fast_food,Food/Drink,7.2464687,125.3510363,low_confidence,distance=14358.1km>5.0km
983242966,Mayon Volcano Camp Site,camp_site,Accommodation,13.2298299,123.7450232,low_confidence,distance=5.3km>5.0km
983468614,Tea cup,bakery,Food/Drink,11.0430625,124.6014484,low_confidence,name_similarity=57
992113588,Zen Japanese restaurant,restaurant,Food/Drink,15.1831761,120.5226955,low_confidence,distance=127.1km>5.0km
992113614,Grotto,viewpoint,Attraction,15.1836901,120.5237608,low_confidence,distance=9.4km>5.0km
992113622,Montevista Villa,hotel,Accommodation,15.184307,120.5224624,low_confidence,distance=27.1km>5.0km
992114199,Blue Bonnet Cafe,restaurant,Food/Drink,15.1807677,120.519936,low_confidence,distance=13450.2km>5.0km
994937947,Off the Grill,bar,Food/Drink,14.6344681,121.0376502,low_confidence,name_similarity=54
995847421,Riceworld,museum,Attraction,14.168444,121.254548,low_confidence,name_similarity=31
997424646,CASAA Temporary Food Court,fast_food,Food/Drink,14.6527714,121.0713448,low_confidence,name_similarity=33
997967603,Barton's,hotel,Accommodation,9.7744346,125.4869826,low_confidence,distance=13770.2km>5.0km
1003743038,L & E Rest.,restaurant,Food/Drink,15.0143212,120.7053531,low_confidence,distance=42.3km>5.0km
1004374819,Espiritu Resthouse,guesthouse,Accommodation,16.4564792,120.5276185,low_confidence,distance=31.6km>5.0km
1005419809,Prinz Aira,fast_food,Food/Drink,14.614489,121.0554995,zero_results,ZERO_RESULTS
1006461456,Marvie's Pension House,guesthouse,Accommodation,11.0058678,124.6076761,low_confidence,distance=181.2km>5.0km
1012625942,Tuktukaon,fast_food,Food/Drink,11.0051572,124.6075787,low_confidence,distance=548.4km>5.0km
1012742462,Dong's Food Trip,fast_food,Food/Drink,11.0044754,124.6069288,low_confidence,name_similarity=50
1012742484,Chang's Bakeshop,bakery,Food/Drink,11.004365,124.6073031,low_confidence,distance=202.8km>5.0km
1012742491,Ngo Hiong House,fast_food,Food/Drink,11.0044533,124.6070036,low_confidence,distance=110.5km>5.0km
1012775311,Kamalig GM Fastfoods,fast_food,Food/Drink,11.0034969,124.6137614,low_confidence,distance=40.5km>5.0km
1012775317,Tatta's Pizzeria,restaurant,Food/Drink,11.0076275,124.6081539,low_confidence,distance=13288.7km>5.0km
1014259071,Villa Alilio,chalet,Accommodation,14.1517624,120.957225,low_confidence,name_similarity=52
1016669204,Hub Concepts Internet Cafe,cafe,Food/Drink,11.004287,124.609348,low_confidence,distance=33.5km>5.0km
1016669230,Treelis Resto Grill,fast_food,Food/Drink,11.0043865,124.6093824,low_confidence,distance=105.2km>5.0km
1021566326,Julie's,bakery,Food/Drink,14.136411,121.1355408,low_confidence,distance=17.2km>5.0km
1021576757,Food Catering Services,restaurant,Food/Drink,14.9969806,120.7038049,low_confidence,distance=6.4km>5.0km
1022888540,Apolinario De La Cruz (Hermano Puli),memorial,Attraction,14.1441212,121.545676,low_confidence,name_similarity=45
1024780817,Green R Hotel,hotel,Accommodation,17.5688465,120.3840163,low_confidence,distance=11688.2km>5.0km
1027889984,Imelda Park,picnic_site,Park/Nature,17.4647177,120.4350689,low_confidence,distance=793.3km>5.0km
1029050412,Folk Arts,theatre,Attraction,8.1584229,125.132688,low_confidence,name_similarity=33
1029178500,Coco Beach,hotel,Accommodation,13.5251043,120.9626222,low_confidence,distance=14815.3km>5.0km
1036709229,Museum Cafe,cafe,Food/Drink,14.653292,121.0669183,low_confidence,name_similarity=55
1037130637,Chino Roces,memorial,Attraction,14.6000808,120.9913328,low_confidence,distance=5.8km>5.0km
1037130709,FreeMASONS_Fountain,fountain,Park/Nature,14.5935573,120.9940092,low_confidence,name_similarity=47
1037921415,Philippine-Mexican Marker Plaza,memorial,Attraction,14.594473,120.9746043,low_confidence,name_similarity=51
1038058830,Sultan Dipatwan Kudarat,memorial,Attraction,14.580309,120.9762685,low_confidence,distance=5.9km>5.0km
1038058877,Lapu-Lapu,memorial,Attraction,14.5827493,120.9794562,low_confidence,distance=574.3km>5.0km
1038058937,Mosaic Murals,artwork,Attraction,14.5818436,120.9756658,low_confidence,distance=8.6km>5.0km
1038058944,Lapu-Lapu Monument,memorial,Attraction,14.5837782,120.9805894,low_confidence,name_similarity=39
1038058970,Halamanang Pilipino,park,Park/Nature,14.5855393,120.9820155,low_confidence,distance=9.4km>5.0km
1038225312,Adams Canteen,restaurant,Food/Drink,14.5889432,120.9779929,low_confidence,distance=7.8km>5.0km
1038225325,Sunlai Foodhouse,fast_food,Food/Drink,14.5881576,120.9774017,low_confidence,distance=11283.6km>5.0km
1038225354,Canada - In Memoriam,memorial,Attraction,14.588006,120.9818752,low_confidence,distance=13161.3km>5.0km
1038225360,Casas Consistoriales,memorial,Attraction,14.5925078,120.9733269,low_confidence,name_similarity=33
1040443773,Mang Inasal,fast_food,Food/Drink,14.5783531,120.9797883,api_error,API status: INTERNAL
1041008722,UIP Restaurant,restaurant,Food/Drink,14.578776,120.9755644,low_confidence,name_similarity=36
1041008749,Karinderya ni Ramon,fast_food,Food/Drink,14.5788902,120.9757249,low_confidence,distance=8.7km>5.0km
1041297478,Big Mama's,restaurant,Food/Drink,14.5777593,120.9796801,low_confidence,distance=5.8km>5.0km
1042574319,Lost Eden,attraction,Attraction,14.4624615,121.0212754,low_confidence,distance=36.5km>5.0km
1044584225,Lareina Bakery,bakery,Food/Drink,14.4052177,120.9777592,low_confidence,distance=2011.8km>5.0km
1044705076,Baliwag,fast_food,Food/Drink,14.4631863,120.9885801,low_confidence,distance=56.8km>5.0km
1051590806,Rufo's Famous Tapa,restaurant,Food/Drink,14.6327367,121.0441025,low_confidence,distance=6.3km>5.0km
1051599506,GBA Travel and Tours,travel_agent,Retail,14.6304529,121.0454608,low_confidence,distance=7590.3km>5.0km
1054503272,Wall of Martyrs,memorial,Attraction,14.5934525,120.9704458,low_confidence,distance=9.3km>5.0km
1054550021,Bacolod Chk-N-Bbq,restaurant,Food/Drink,14.593288,120.9735218,low_confidence,distance=9.3km>5.0km
1054550144,Flower Stories Cafe,cafe,Food/Drink,14.5915158,120.9750377,low_confidence,distance=6.9km>5.0km
1056381579,Bodos Bamboo Bar,cafe,Food/Drink,9.71506,123.508564,low_confidence,name_similarity=37
1059372290,Vernini's Resto Bar,bar,Food/Drink,14.2219332,120.9735361,low_confidence,distance=11917.7km>5.0km
1061673159,Ketchikan,fast_food,Food/Drink,14.3012916,120.9543851,low_confidence,distance=9762.8km>5.0km
1061673163,Ethel And Ethan Canteen,restaurant,Food/Drink,14.2990112,120.9581609,low_confidence,distance=65.0km>5.0km
1061673175,Evram Andrei Store,restaurant,Food/Drink,14.2988163,120.9571096,low_confidence,distance=13.9km>5.0km
1061694267,Mafe Ihaw Ihaw,fast_food,Food/Drink,14.2999599,120.9547787,low_confidence,distance=18.2km>5.0km
1062062099,RVL Eatery,restaurant,Food/Drink,14.2991485,120.9550932,low_confidence,distance=16.3km>5.0km
1062062111,Rose And Hans Eatery,restaurant,Food/Drink,14.2989904,120.9579948,low_confidence,distance=13086.0km>5.0km
1064637484,General Mariano Alvarez,tourist_info,Other,14.300112,120.9542248,low_confidence,distance=5.7km>5.0km
1065741523,Binalot sa Dahon,fast_food,Food/Drink,14.1177939,120.9609165,low_confidence,distance=26.3km>5.0km
1073099421,Bahia de Baler Bar and Restaurant,restaurant,Food/Drink,15.761346,121.5681578,low_confidence,name_similarity=55
1074623702,Gen-Taurus Tailoring Shop,attraction,Attraction,14.2983477,120.9556844,low_confidence,distance=40.8km>5.0km
1074623723,Matsarang Korean Restaurant,restaurant,Food/Drink,14.2989541,120.9591508,low_confidence,distance=6225.3km>5.0km
1078000329,Banapple,fast_food,Food/Drink,14.6362588,121.0353211,low_confidence,distance=5.1km>5.0km
1079179106,Valiente Bakery,bakery,Food/Drink,14.5356699,121.1122629,low_confidence,distance=5.3km>5.0km
1080132023,Legend Seafood Restaurant,restaurant,Food/Drink,14.5531167,120.986271,low_confidence,distance=8528.8km>5.0km
1083465320,Baang Cafe,cafe,Food/Drink,14.6326074,121.0350275,low_confidence,distance=12.4km>5.0km
1085896329,Santé Café,cafe,Food/Drink,14.5924273,121.059816,low_confidence,name_similarity=40
1095850528,Prito Master,fast_food,Food/Drink,7.0655565,125.608489,zero_results,ZERO_RESULTS
1098025174,Pritong Manok,fast_food,Food/Drink,7.44619,125.8103614,low_confidence,distance=47.8km>5.0km
1102191175,Balinok's Lechon House,fast_food,Food/Drink,5.987787,124.6236729,low_confidence,distance=151.2km>5.0km
1105718163,Country Style,cafe,Food/Drink,14.5348547,121.0506132,low_confidence,distance=6.0km>5.0km
1110054638,Stoops,restaurant,Food/Drink,14.5627206,121.0191222,low_confidence,distance=13673.7km>5.0km
1110135696,Il Ponticello,restaurant,Food/Drink,14.5588805,121.0198691,low_confidence,distance=10400.0km>5.0km
1110139317,La Cuisine Francaise,restaurant,Food/Drink,14.558768,121.0225285,low_confidence,name_similarity=50
1118473903,Abe & Sheryl Bakery,bakery,Food/Drink,14.6224326,120.9977805,low_confidence,distance=11.2km>5.0km
1119533857,Archie Ogag Meatshop,fast_food,Food/Drink,14.4056811,120.9902946,low_confidence,distance=13079.1km>5.0km
1121007793,Mojica's Bakery,bakery,Food/Drink,14.3847761,120.8799987,low_confidence,distance=38.1km>5.0km
1121142723,San Juan Resort,hotel,Accommodation,14.3659895,121.4790016,low_confidence,distance=284.1km>5.0km
1130780748,JJ Landing Inn,hotel,Accommodation,14.2660073,121.4640755,low_confidence,distance=10.2km>5.0km
1130780756,Magdapio Hotel and Restaurant,hotel,Accommodation,14.27201,121.456046,low_confidence,name_similarity=48
1132134636,Cafe Andressa,restaurant,Food/Drink,7.111463,125.6135396,low_confidence,name_similarity=55
1134347553,Jungle Bar and Grill,bar,Food/Drink,11.0188678,124.6016974,low_confidence,distance=14480.1km>5.0km
1134951794,Galleon Food Gallery,restaurant,Food/Drink,14.5582714,121.024267,low_confidence,distance=6.1km>5.0km
1134951802,Good Mixes,restaurant,Food/Drink,14.5584839,121.0239425,low_confidence,name_similarity=42
1134951806,The Galley,fast_food,Food/Drink,14.5589408,121.0236158,low_confidence,distance=8.3km>5.0km
1140358335,Sansung Korean Restaurant,restaurant,Food/Drink,14.5652249,121.0311867,low_confidence,name_similarity=44
1140369686,Passi-Duenas Boundary Landmark,memorial,Attraction,11.080914,122.6265569,low_confidence,name_similarity=44
1140662806,Serye,restaurant,Food/Drink,14.6495484,121.049906,low_confidence,distance=53.5km>5.0km
1140897583,Stella's Bread Haus,bakery,Food/Drink,11.0051619,124.60678,low_confidence,distance=14.0km>5.0km
1141042231,Ngo Hiong House,fast_food,Food/Drink,11.0232375,124.6027741,low_confidence,distance=111.7km>5.0km
1142290019,Señor San Isidro,artwork,Attraction,11.0408051,124.6272659,low_confidence,distance=31.8km>5.0km
1143275731,Pan de Amerikana,bakery,Food/Drink,14.5636365,121.0287111,low_confidence,distance=12.9km>5.0km
1143276666,Nita's Lugawan,fast_food,Food/Drink,14.5948399,121.0278259,low_confidence,distance=19.5km>5.0km
1143326796,La Vista Pagsanjan Resort,hotel,Accommodation,14.2722596,121.4547746,low_confidence,distance=30.3km>5.0km
1144972520,Edelweiss Austrian Restaurant,restaurant,Food/Drink,9.3006829,123.2971643,low_confidence,distance=12713.3km>5.0km
1144972522,Fuh Garen Chinese Restaurant,restaurant,Food/Drink,9.3010526,123.2974766,low_confidence,distance=14009.8km>5.0km
1144975152,Flamming Gold Bar,pub,Food/Drink,14.6578793,121.0213767,zero_results,ZERO_RESULTS
1145089944,Cravings Restaurant,restaurant,Food/Drink,14.5598838,121.025777,low_confidence,distance=10.6km>5.0km
1150426307,The Chocolate Kiss,restaurant,Food/Drink,14.6297924,121.029554,low_confidence,distance=5.5km>5.0km
1150906970,Zausycho Bar,bar,Food/Drink,14.6346828,121.0374671,low_confidence,name_similarity=58
1152155128,WG Diner,restaurant,Food/Drink,14.5652743,121.0296418,low_confidence,name_similarity=50
1152261667,Energy Lounge,cafe,Food/Drink,14.6349016,121.0267597,low_confidence,distance=13608.0km>5.0km
1152261750,Karaoke Republic,pub,Food/Drink,14.6357545,121.0320409,low_confidence,name_similarity=32
1153832196,Marinara,bar,Food/Drink,14.6356281,121.024087,low_confidence,name_similarity=25
1153832452,Stoutmeisje (formerly Catwalk),bar,Food/Drink,14.6356997,121.0241619,low_confidence,distance=5.9km>5.0km
1156170209,West Saddle Camp,camp_site,Accommodation,10.417986,123.1332311,low_confidence,distance=5812.0km>5.0km
1157254299,Camp 1,camp_site,Accommodation,17.0045908,121.1308522,low_confidence,distance=53.6km>5.0km
1157403759,Camp 1,camp_site,Accommodation,10.4280267,123.1245819,low_confidence,distance=11466.4km>5.0km
1157403846,Camp 2,camp_site,Accommodation,10.4285714,123.1286508,low_confidence,distance=77.6km>5.0km
1157403854,Pagatpat Camp,camp_site,Accommodation,10.4238126,123.1354502,low_confidence,distance=271.4km>5.0km
1157403868,Overlooking Old Crater,viewpoint,Attraction,10.4229236,123.1349379,low_confidence,distance=6.4km>5.0km
1157403875,Hardin Sang Balo,swimming_pool,Park/Nature,10.4498331,123.138265,low_confidence,distance=6.3km>5.0km
1157403904,Camp 3,camp_site,Accommodation,10.4281494,123.1328001,low_confidence,distance=11773.2km>5.0km
1157722464,House of Runes Cafe,cafe,Food/Drink,14.6503905,121.0286077,low_confidence,distance=8.5km>5.0km
1157838589,Dadi's Bakeshop,bakery,Food/Drink,11.0055915,124.6068792,low_confidence,distance=13865.4km>5.0km
1157838609,Sammy's Food Lane & Beer Station,restaurant,Food/Drink,11.0059106,124.6065609,low_confidence,distance=90.4km>5.0km
1157838614,Chang's Bakeshop,bakery,Food/Drink,11.0059333,124.6064612,low_confidence,distance=202.8km>5.0km
1164661797,Nice View Eatery & Fastfood,restaurant,Food/Drink,16.5413918,120.3257635,low_confidence,distance=9.0km>5.0km
1164746527,Marina Resort Club,hotel,Accommodation,17.2849856,120.4346764,low_confidence,distance=141.0km>5.0km
1166110447,Muebles de Vigan Showroom,gift_shop,Retail,17.5719709,120.3889483,low_confidence,name_similarity=35
1170917485,Tanod Outpost,observation_tower,Attraction,11.0304239,124.655835,low_confidence,distance=27.7km>5.0km
1171462781,Mister Donut,cafe,Food/Drink,11.1053151,122.645197,low_confidence,distance=40.9km>5.0km
1171725623,Cheng Eatery,fast_food,Food/Drink,11.1057299,122.6462852,low_confidence,distance=342.7km>5.0km
1177537829,View of Tailside,viewpoint,Attraction,14.3806468,120.5780419,zero_results,ZERO_RESULTS
1177537937,The Old Corregidor Flagpole,attraction,Attraction,14.3797116,120.5748538,low_confidence,name_similarity=30
1177537996,Maj. William Masselo Jr.,tourist_info,Other,14.3835086,120.5727163,zero_results,ZERO_RESULTS
1177538540,Sunset View,viewpoint,Attraction,14.3845006,120.5672513,low_confidence,distance=22.9km>5.0km
1177538658,Senior Officers Family Quarters Row,ruins,Attraction,14.3793397,120.5741794,zero_results,ZERO_RESULTS
1177539116,Telephone Exchange Building,ruins,Attraction,14.3812893,120.5762326,low_confidence,distance=13631.2km>5.0km
1177539632,to 300 Steps Shortcut to Topside,tourist_info,Other,14.3831498,120.5794949,zero_results,ZERO_RESULTS
1177540185,Gen. Jonathan M. Wainright,memorial,Attraction,14.3863978,120.588464,zero_results,ZERO_RESULTS
1177540429,Spanish Museum,museum,Attraction,14.379755,120.5768357,low_confidence,distance=48.8km>5.0km
1177540601,The Rock Force,memorial,Attraction,14.3807615,120.5748917,low_confidence,distance=6869.2km>5.0km
1177540891,Old Swimming Pool,ruins,Attraction,14.3783803,120.5764306,low_confidence,distance=34.1km>5.0km
1177540928,The Old Corregidor Flagpole,memorial,Attraction,14.3797116,120.5748599,low_confidence,name_similarity=30
1177541076,Sergio Osmenia Sr.,monument,Attraction,14.3888239,120.5994525,low_confidence,distance=52.0km>5.0km
1177541138,Ordnance Repair Shop,ruins,Attraction,14.383238,120.5716763,low_confidence,distance=49.5km>5.0km
1177541207,Angels of Bataan Memorial Marker,memorial,Attraction,14.3863637,120.5883966,low_confidence,distance=11.8km>5.0km
1178841560,Defense of Hawaii & SouthWest Pacific,memorial,Attraction,14.3807092,120.5775876,low_confidence,distance=8584.4km>5.0km
1178841563,Philippine Liberation,memorial,Attraction,14.3807102,120.5777115,low_confidence,distance=455.8km>5.0km
1178841564,Buddha Statue,artwork,Attraction,14.3867146,120.5990568,low_confidence,distance=1124.0km>5.0km
1178841566,Marianas Campaign & Central Pacific,memorial,Attraction,14.3805887,120.5776535,zero_results,ZERO_RESULTS
1178841569,chinese bakery (pre-war/ruins),ruins,Attraction,14.3862096,120.5888159,low_confidence,distance=11259.9km>5.0km
1178841570,"North Pacific, New Guinea to the Philippines",memorial,Attraction,14.3807097,120.5776512,zero_results,ZERO_RESULTS
1178841572,Corregidor Facilities/Services,tourist_info,Other,14.384799,120.5890277,low_confidence,distance=40.2km>5.0km
1178841573,Manuel L Quezon,monument,Attraction,14.3889596,120.5995148,low_confidence,distance=55.1km>5.0km
1178841574,"The PH Resistance Movement, The Final Battles",memorial,Attraction,14.3805881,120.5777141,zero_results,ZERO_RESULTS
1178841578,South Pacific & Defense of the Philippines,memorial,Attraction,14.3805877,120.5775885,zero_results,ZERO_RESULTS
1178841580,MacArthur Landing,memorial,Attraction,14.3847521,120.5889954,low_confidence,distance=598.0km>5.0km
1179313582,Gloria Maris Shark's Fin Restaurant,restaurant,Food/Drink,14.5558719,120.9787977,low_confidence,distance=9.4km>5.0km
1180629680,Ritz Grills,fast_food,Food/Drink,15.0403296,120.6793642,low_confidence,distance=82.9km>5.0km
1182501982,Tribu Diwata,bar,Food/Drink,14.5653496,121.0294674,low_confidence,name_similarity=54
1182683529,Pampanga's Kitchenette,restaurant,Food/Drink,14.6339429,121.0467053,low_confidence,distance=59.9km>5.0km
1183254755,Cafe de Combado,fast_food,Food/Drink,11.0191071,124.6058244,low_confidence,name_similarity=58
1183816481,Hotel Inwangsan,hotel,Accommodation,14.5626241,121.0287033,low_confidence,distance=2626.0km>5.0km
1188790453,Buffy's Bar,bar,Food/Drink,11.0088194,124.6075644,low_confidence,distance=12583.9km>5.0km
1189412366,Boynen's Food Place,fast_food,Food/Drink,11.0098152,124.6095641,low_confidence,name_similarity=43
1189412388,Doki's Kiddos Resto-Inn,fast_food,Food/Drink,11.0108629,124.6095063,low_confidence,distance=13.8km>5.0km
1189706025,Bella's! Dimsum & Pizza,fast_food,Food/Drink,11.0143462,124.6069254,low_confidence,distance=13746.8km>5.0km
1189706264,Ormoc City Lodge,guesthouse,Accommodation,11.0090833,124.6078589,low_confidence,name_similarity=38
1189706273,Dadi's Bakeshop,bakery,Food/Drink,11.0146556,124.6067911,low_confidence,distance=14483.8km>5.0km
1190524946,JT's Chicken Inasal,restaurant,Food/Drink,14.6084155,121.0384116,low_confidence,name_similarity=53
1191398444,Eldorado Beach Resort Restaurant,restaurant,Food/Drink,9.1922891,123.2715092,low_confidence,distance=3321.3km>5.0km
1191398535,Pool Bar,bar,Food/Drink,9.1925326,123.2709337,low_confidence,distance=6.7km>5.0km
1192140948,Balinsasayaw Grill,restaurant,Food/Drink,7.4419068,125.8050813,low_confidence,distance=814.0km>5.0km
1192297878,Yoohoo,restaurant,Food/Drink,14.5625411,121.0287327,low_confidence,name_similarity=18
1192361805,Rizal Monument,memorial,Attraction,14.8416796,120.2868967,low_confidence,distance=79.7km>5.0km
1192700051,Raquel's Budget Meals,fast_food,Food/Drink,11.0215828,124.6046247,low_confidence,distance=46.1km>5.0km
1192700059,Balamban Liempo,fast_food,Food/Drink,11.0190119,124.6055824,low_confidence,distance=107.7km>5.0km
1192700063,Bebop Bakeshop & Store,bakery,Food/Drink,11.0184518,124.6060255,zero_results,ZERO_RESULTS
1192700065,Wowie & Angela Foodhaus,fast_food,Food/Drink,11.0167382,124.60648,low_confidence,distance=64.8km>5.0km
1193018840,Janeth Eatery,fast_food,Food/Drink,9.3635324,122.8061611,low_confidence,distance=163.6km>5.0km
1193018873,Chicken Ati-atihan,restaurant,Food/Drink,9.3636911,122.8055404,low_confidence,distance=41.9km>5.0km
1194015972,Clearing,camp_site,Accommodation,6.9652828,125.2764737,low_confidence,distance=25.3km>5.0km
1194019173,Baroring Camp 1,camp_site,Accommodation,6.9707087,125.2731988,zero_results,ZERO_RESULTS
1194019185,Baroring Camp 2,camp_site,Accommodation,6.9713336,125.2733946,zero_results,ZERO_RESULTS
1194019221,Baroring Camp 3,camp_site,Accommodation,6.9714515,125.2733356,zero_results,ZERO_RESULTS
1194202317,Sulfur Vents,viewpoint,Attraction,7.0200372,125.2271434,low_confidence,distance=338.9km>5.0km
1194252199,Trekkers' Information Center,tourist_info,Other,6.9064834,125.3426831,low_confidence,distance=4803.7km>5.0km
1194252210,Sofia Eatery,fast_food,Food/Drink,6.738842,125.3655883,low_confidence,distance=42.2km>5.0km
1195827284,Gypsy Magic,bar,Food/Drink,14.6156625,121.0701901,zero_results,ZERO_RESULTS
1197029147,Life Coffee & Tea,cafe,Food/Drink,14.529608,120.9891003,low_confidence,distance=7.3km>5.0km
1197029154,Fatless Shabu-Shabu,restaurant,Food/Drink,14.5295367,120.9891079,low_confidence,distance=5.1km>5.0km
1197029156,Yasubei,restaurant,Food/Drink,14.5298169,120.9889717,low_confidence,distance=2999.3km>5.0km
1200269332,Deo's Hideaway Bar,bar,Food/Drink,14.5837095,121.1668506,low_confidence,name_similarity=33
1202742041,Death March KM 97,memorial,Attraction,15.006373,120.6557004,low_confidence,distance=63.6km>5.0km
1203026084,Cynth'z Bakery,bakery,Food/Drink,14.4251611,120.9442784,low_confidence,distance=26.9km>5.0km
1203973552,Steak Plus,restaurant,Food/Drink,14.587213,121.0647926,low_confidence,distance=6.7km>5.0km
1203973553,Brazil Brazil,restaurant,Food/Drink,14.587215,121.0647109,low_confidence,distance=19259.2km>5.0km
1203973555,Aruba,bar,Food/Drink,14.5876793,121.0645128,low_confidence,distance=16765.1km>5.0km
1203973556,Jinji Korean Bar,bar,Food/Drink,14.5876805,121.064408,low_confidence,distance=8.7km>5.0km
1203973558,Marina Seafoods,restaurant,Food/Drink,14.5876815,121.0643315,low_confidence,distance=6.6km>5.0km
1205415719,Gulp Club,bar,Food/Drink,14.6382183,121.0306797,low_confidence,distance=8.1km>5.0km
1205464070,Magellan First Landing,memorial,Attraction,10.6945634,125.8075303,low_confidence,distance=191.8km>5.0km
1208987134,Azur Bar & Grill,bar,Food/Drink,15.1434171,120.5593585,low_confidence,distance=89.9km>5.0km
1210478083,Dominik`s Travel,travel_agent,Retail,9.192735,123.2693341,zero_results,ZERO_RESULTS
1214433764,Mangrove Hut 2 (view deck),viewpoint,Attraction,9.9107188,118.875962,zero_results,ZERO_RESULTS
1214433783,Art Center,arts_centre,Attraction,9.9138419,118.8775691,low_confidence,distance=22.0km>5.0km
1214433891,Tabu-an,gift_shop,Retail,9.9141683,118.8770936,low_confidence,distance=494.4km>5.0km
1215067671,Ugong Rock Grill & Seafood Bar,restaurant,Food/Drink,9.7396826,118.7466892,low_confidence,distance=40.4km>5.0km
1215067728,Barakalan Sa Turismo,pub,Food/Drink,9.7397115,118.7519718,zero_results,ZERO_RESULTS
1215068053,Kambingan at Iba Pa,fast_food,Food/Drink,9.7587447,118.7475898,low_confidence,distance=598.4km>5.0km
1215068074,Thanh-Tam Vietnamese Orig Dish,restaurant,Food/Drink,9.739785,118.750131,low_confidence,name_similarity=54
1215610157,Aviary,zoo,Attraction,9.8075512,118.7352706,low_confidence,distance=165.7km>5.0km
1215610167,Cartoon Character Statues,artwork,Attraction,9.8075701,118.7344435,zero_results,ZERO_RESULTS
1215642035,Entrance Ticket,tourist_info,Other,9.7997826,118.6936724,low_confidence,distance=7.1km>5.0km
1215642065,Leslie's Hotel & Restaurants,hotel,Accommodation,9.8042466,118.7337959,low_confidence,distance=15562.6km>5.0km
1215642078,Nature Park,tourist_info,Other,9.7988134,118.6951074,low_confidence,name_similarity=45
1215677169,Amber Souvenir Shop,gift_shop,Retail,9.7988823,118.6950823,low_confidence,distance=9764.6km>5.0km
1217093372,Token Ginseng Chicken,restaurant,Food/Drink,14.5640597,121.029945,low_confidence,distance=2625.9km>5.0km
1217093374,Mulle Banga,restaurant,Food/Drink,14.5639688,121.0300871,zero_results,ZERO_RESULTS
1217601256,Banzon's Eatery,fast_food,Food/Drink,11.0044952,124.6065325,low_confidence,distance=567.9km>5.0km
1217601301,Durano's Eatery,fast_food,Food/Drink,11.0044279,124.6065107,low_confidence,name_similarity=53
1217601307,Rafael Lodge,guesthouse,Accommodation,11.0051262,124.6060597,low_confidence,distance=6.7km>5.0km
1217601323,Cyberwolf Lodge,guesthouse,Accommodation,11.0051665,124.6056036,low_confidence,distance=4926.2km>5.0km
1218159606,Bat Cave,attraction,Attraction,9.6578381,124.0179009,low_confidence,distance=75.2km>5.0km
1218199679,Tanghay Lodge,hotel,Accommodation,11.0424498,125.7126825,low_confidence,name_similarity=54
1218221785,Floating bar,bar,Food/Drink,11.0437963,125.7063213,low_confidence,distance=198.3km>5.0km
1218247753,Donsol Visitor Center,attraction,Attraction,12.9230991,123.5779754,low_confidence,name_similarity=52
1220014932,DJ Ann Rich Foodcourt,food_court,Food/Drink,9.757461,118.7475939,low_confidence,name_similarity=36
1220014986,J.E.E. Lapid,fast_food,Food/Drink,9.7537962,118.7475318,zero_results,ZERO_RESULTS
1222873323,Karenderia,fast_food,Food/Drink,15.4481306,121.0830226,low_confidence,distance=15.9km>5.0km
1224333548,Helen's Apartment,hostel,Accommodation,15.0584788,120.6608037,low_confidence,distance=66.6km>5.0km
1224361603,Barangay Bakery,bakery,Food/Drink,15.0564644,120.6656174,low_confidence,name_similarity=47
1226350615,J Pension House,guesthouse,Accommodation,7.4483645,125.8057335,low_confidence,distance=171.1km>5.0km
1226350619,L' Car Bakeshop,bakery,Food/Drink,7.4474795,125.805001,low_confidence,name_similarity=44
1226363574,Highway 50,bar,Food/Drink,7.4215289,125.78972,low_confidence,distance=13209.2km>5.0km
1226386247,Panaderia,bakery,Food/Drink,8.536442,126.1209577,low_confidence,name_similarity=33
1226395703,Blue Waters Function Hall,restaurant,Food/Drink,7.0962797,125.6643469,low_confidence,name_similarity=56
1226398113,SGI Davao Culture Center,arts_centre,Attraction,7.0626766,125.5642967,low_confidence,name_similarity=38
1226407182,Turquoise Kebab Restaurant,restaurant,Food/Drink,7.0687764,125.6151876,low_confidence,name_similarity=50
1226408334,Residencia De Briendel,guesthouse,Accommodation,7.0689914,125.6178529,low_confidence,distance=14.3km>5.0km
1226423103,D' Event Restobar,bar,Food/Drink,7.0526708,125.5982707,low_confidence,name_similarity=59
1226458468,Honey Bear,restaurant,Food/Drink,7.022619,125.5002909,low_confidence,distance=13.1km>5.0km
1226704863,Cristy's Dormitory,guesthouse,Accommodation,7.1063872,125.6150142,low_confidence,distance=227.3km>5.0km
1226719661,High Event Inn,guesthouse,Accommodation,7.0526326,125.5982443,low_confidence,name_similarity=25
1226725478,The Broadway Melodies,arts_centre,Attraction,7.0557919,125.5568065,zero_results,ZERO_RESULTS
1227402329,Kiosk,fast_food,Food/Drink,7.1341054,125.3829575,low_confidence,distance=25.6km>5.0km
1227427720,Tia Nina Pizza & Pasta,restaurant,Food/Drink,7.0228067,125.500556,low_confidence,distance=12.7km>5.0km
1227523540,Pengay's Place Bar & Resto,bar,Food/Drink,7.0103782,125.5054235,low_confidence,distance=13.6km>5.0km
1227535108,Ryder's Inn,guesthouse,Accommodation,7.0228281,125.4607233,low_confidence,distance=13952.7km>5.0km
1227918781,World War 2 Heroes Memorial,memorial,Attraction,14.2817945,121.4156498,low_confidence,distance=13799.2km>5.0km
1227918784,Provincial Capitol Fountain,fountain,Park/Nature,14.2765468,121.4169874,low_confidence,name_similarity=51
1229056810,Q8 Express Inn,hostel,Accommodation,7.0670595,125.6042469,low_confidence,name_similarity=36
1229202463,Mandarin Tea Garden,restaurant,Food/Drink,7.1145179,125.6527699,low_confidence,distance=5.1km>5.0km
1229586853,Golden Pavilion Chinese Restaurant & Night Club,restaurant,Food/Drink,18.1564113,120.5225696,low_confidence,distance=13300.0km>5.0km
1229586891,Passion KTV Bar,bar,Food/Drink,18.1568553,120.5226053,low_confidence,distance=13314.2km>5.0km
1229587027,FIR Fountain Area,fountain,Park/Nature,18.1567974,120.5220775,low_confidence,distance=12133.6km>5.0km
1230186637,Saylo Restaurant,restaurant,Food/Drink,11.6953595,122.3742417,low_confidence,name_similarity=33
1231083276,Joker Bakery,bakery,Food/Drink,18.1521772,120.5284537,low_confidence,distance=14592.3km>5.0km
1231795927,Lake Paoay History,tourist_info,Other,18.1192945,120.5266304,low_confidence,name_similarity=39
1231816256,Dambana ng Kagitingan Museum,museum,Attraction,14.6056578,120.5096811,low_confidence,name_similarity=52
1231820190,Ram's Chicken & Grill,restaurant,Food/Drink,7.0519144,125.5902351,low_confidence,name_similarity=52
1231895511,Alelix Hotel,guesthouse,Accommodation,18.1649222,120.590558,low_confidence,distance=11606.5km>5.0km
1232400025,Loring's Restaurant,restaurant,Food/Drink,7.0613637,125.5904761,low_confidence,name_similarity=58
1232598486,Batac Food Plaza,restaurant,Food/Drink,18.0551245,120.5650634,low_confidence,name_similarity=50
1233269195,Suribas Ihaw - Ihaw,restaurant,Food/Drink,7.1231037,125.4802348,low_confidence,distance=14.8km>5.0km
1233323195,Casa Gracia Inn,hostel,Accommodation,7.0611416,125.5933692,low_confidence,distance=12142.6km>5.0km
1233373274,Valle Verde Hotel,hotel,Accommodation,15.0303161,120.6745677,low_confidence,distance=5.6km>5.0km
1233373363,Valle Verde Hotel,hotel,Accommodation,15.0301451,120.6745463,low_confidence,distance=5.7km>5.0km
1233503761,Alexis Bar & Videoke,pub,Food/Drink,18.1651598,120.5907141,low_confidence,distance=329.7km>5.0km
1234350957,Silang's Best Fishball,fast_food,Food/Drink,14.218665,120.9732573,low_confidence,name_similarity=57
1234412157,Sugbahan Sa Payag,restaurant,Food/Drink,7.1348637,125.475433,low_confidence,distance=86.0km>5.0km
1234586904,Casa Maria Inn,hotel,Accommodation,7.0491554,125.5861755,low_confidence,distance=8.2km>5.0km
1234596184,Khash Persian Kebab & Resto Bar,restaurant,Food/Drink,7.0527511,125.5934019,low_confidence,name_similarity=42
1234717200,Billy the Kid,restaurant,Food/Drink,7.0571422,125.5720985,low_confidence,name_similarity=54
1234750288,Merco Take Out Counter,fast_food,Food/Drink,7.1110781,125.6185676,low_confidence,distance=5.3km>5.0km
1235365645,Tong-Yang Smokeless Grill & Shabu Shabu,restaurant,Food/Drink,7.0765299,125.6194337,low_confidence,name_similarity=53
1235443429,Gimik Barkada Ktv,bar,Food/Drink,7.081319,125.6135451,low_confidence,distance=405.7km>5.0km
1236157657,Cafe Bonjour,cafe,Food/Drink,14.4212866,121.0334873,low_confidence,distance=13581.6km>5.0km
1236278878,Iodized Salt (road-side stores),marketplace,Retail,18.3679027,120.6045237,low_confidence,distance=10382.2km>5.0km
1236958947,Tai-Pan Palace,restaurant,Food/Drink,7.0667223,125.6073052,low_confidence,distance=11442.4km>5.0km
1237292485,Big Apple Hotel & Bar,hotel,Accommodation,7.1102235,125.6323897,low_confidence,name_similarity=47
1237370083,Northwood Swimming pool,swimming_pool,Park/Nature,15.0635661,120.6469087,low_confidence,distance=12653.3km>5.0km
1237389623,Vangie Pool Bar,bar,Food/Drink,7.1339054,125.6865122,low_confidence,distance=34.2km>5.0km
1237403460,Bangui Windmills Viewdeck,viewpoint,Attraction,18.5168775,120.7029102,low_confidence,name_similarity=56
1237585590,Kokai,restaurant,Food/Drink,14.9379176,120.5998609,low_confidence,distance=13693.8km>5.0km
1237612622,Lagundino Carinderia,fast_food,Food/Drink,18.5603479,120.7866974,low_confidence,distance=445.9km>5.0km
1238067283,North Wind Restaurant & Videoke Bar,restaurant,Food/Drink,18.5375598,120.7659839,low_confidence,name_similarity=54
1238067287,Miguel Luis (Pansiteria),restaurant,Food/Drink,18.5361748,120.7643087,zero_results,ZERO_RESULTS
1238089217,2N1 Place,restaurant,Food/Drink,18.530756,120.7942458,zero_results,ZERO_RESULTS
1238146069,Dunkin',fast_food,Food/Drink,18.5598511,120.7866927,low_confidence,distance=45.0km>5.0km
1238146071,Bondat Lechon Manok,fast_food,Food/Drink,18.5615831,120.7882377,zero_results,ZERO_RESULTS
1238153953,Toni's Homestay (with aircon),guesthouse,Accommodation,18.5655448,120.7887203,low_confidence,name_similarity=45
1238397136,Karen's Resort & Poolside Restaurant,swimming_pool,Park/Nature,7.1818613,125.7187445,zero_results,ZERO_RESULTS
1238404696,Air Philippines Flight 541 Crash Site,memorial,Attraction,7.1860041,125.7071061,low_confidence,distance=11.4km>5.0km
1238550504,Aling Inday Lugawan sa Banga,restaurant,Food/Drink,14.2140037,121.1667915,low_confidence,distance=62.3km>5.0km
1239086494,Veterans Federation of the Phil. (VFP Marker),memorial,Attraction,17.5754536,120.3861151,low_confidence,distance=337.9km>5.0km
1239086530,ABOEX Travel & Tours,travel_agent,Retail,17.5757873,120.3877148,low_confidence,name_similarity=28
1239086548,Pedro Bukaneg (Ama ng Panitikang Iloko),memorial,Attraction,17.5754021,120.3862824,zero_results,ZERO_RESULTS
1239086573,Birthplace of Father Burgos,memorial,Attraction,17.5755762,120.3858292,low_confidence,name_similarity=30
1239330786,Calypso Resort,hotel,Accommodation,9.546346,123.7561218,low_confidence,distance=14576.9km>5.0km
1239475895,Royal Downtown Inn,hotel,Accommodation,7.0660806,125.6073136,low_confidence,name_similarity=50
1240464240,Casa De Don Gabriel Florentino,hostel,Accommodation,17.5724388,120.3889979,low_confidence,distance=13183.8km>5.0km
1240477891,Swimming pool Resort,swimming_pool,Park/Nature,14.9962983,120.5318071,low_confidence,distance=15.0km>5.0km
1240596207,Karissa Josy Restaurant,restaurant,Food/Drink,17.5687718,120.3857307,low_confidence,name_similarity=48
1240596212,Baluarte Dinosaur sculptures,artwork,Attraction,17.5514578,120.3767964,low_confidence,name_similarity=54
1240596227,Yellow Submarine,attraction,Attraction,17.5510726,120.3770041,zero_results,ZERO_RESULTS
1240596302,Lions,attraction,Attraction,17.5517576,120.3752921,low_confidence,distance=133.9km>5.0km
1240596319,snake,attraction,Attraction,17.5513538,120.3766622,low_confidence,distance=109.6km>5.0km
1240596337,JJ Canteen,fast_food,Food/Drink,17.5687504,120.3857264,low_confidence,name_similarity=40
1240646144,Cruz Beach,picnic_site,Park/Nature,6.9383241,125.6745794,low_confidence,distance=11475.8km>5.0km
1240764459,Fidel Antiporda Go Commemorative Marker,memorial,Attraction,17.5714393,120.3825546,low_confidence,name_similarity=37
1240980309,Mae's Kitchen,restaurant,Food/Drink,7.0769423,125.6062003,low_confidence,distance=977.2km>5.0km
1241021122,Swimming pool,swimming_pool,Park/Nature,15.0804209,120.5375895,low_confidence,name_similarity=46
1241509980,The Aquarium,nightclub,Other,7.1103748,125.6473737,low_confidence,name_similarity=59
1241540593,Daddy Lodge & Grill,restaurant,Food/Drink,7.1612537,125.4746251,low_confidence,distance=38.5km>5.0km
1242043808,Reyes Grill,restaurant,Food/Drink,8.156104,125.1273975,low_confidence,distance=13530.7km>5.0km
1242068507,Sailor's Cafe,cafe,Food/Drink,10.6998241,122.5605645,low_confidence,distance=5385.5km>5.0km
1242793218,Cafe Amoree,cafe,Food/Drink,7.1020871,125.6324377,low_confidence,distance=120.8km>5.0km
1242793221,Darcy's Place,fast_food,Food/Drink,7.1018396,125.632507,low_confidence,distance=197.5km>5.0km
1242793226,Siko0mo Sports & Resto Bar,bar,Food/Drink,7.1019015,125.6324897,zero_results,ZERO_RESULTS
1242823568,Bros Brew,cafe,Food/Drink,7.0702097,125.6140399,low_confidence,name_similarity=48
1242832862,Space Burger,restaurant,Food/Drink,7.0969098,125.6187044,low_confidence,name_similarity=53
1242977492,Betia's Eatery,fast_food,Food/Drink,7.04096,125.5266171,low_confidence,distance=8.8km>5.0km
1243916448,Mount Resurrection View,viewpoint,Attraction,15.4375303,120.4311278,zero_results,ZERO_RESULTS
1243939657,Le'Kooks,restaurant,Food/Drink,7.0610278,125.5568258,low_confidence,name_similarity=48
1244186405,Philippine Airlines,travel_agent,Retail,7.0721407,125.6124362,low_confidence,distance=7.2km>5.0km
1245513715,Kubyerto's,restaurant,Food/Drink,7.1172797,125.4794321,low_confidence,distance=14.8km>5.0km
1245600449,Bogsers Restaurant,restaurant,Food/Drink,7.0443944,125.5914967,low_confidence,name_similarity=56
1247154870,Pancit Malabon,fast_food,Food/Drink,14.6488786,121.0282721,low_confidence,name_similarity=57
1247326059,Jo Yang Driving Range,golf_course,Park/Nature,7.0844028,125.5890952,low_confidence,name_similarity=51
1247896491,Delifrance,bakery,Food/Drink,10.6960605,122.5692564,low_confidence,distance=1574.1km>5.0km
1247899898,Quorum,fast_food,Food/Drink,10.7000594,122.5616202,low_confidence,distance=5.6km>5.0km
1248429916,Voyz Out Ktv,pub,Food/Drink,7.0672069,125.6071668,low_confidence,name_similarity=50
1248695036,Mang Inasal,fast_food,Food/Drink,14.4260024,121.0275589,low_confidence,distance=5.9km>5.0km
1248695269,Teriyaki Boy,restaurant,Food/Drink,14.4212583,121.0360757,low_confidence,distance=13.9km>5.0km
1249369069,Boulevard Residence,guesthouse,Accommodation,7.0692022,125.6194675,low_confidence,distance=2694.1km>5.0km
1249403311,Tangway Grills & Sushi Bar,bar,Food/Drink,14.6768964,120.5348889,low_confidence,name_similarity=49
1249405695,Km 8 Restobar,bar,Food/Drink,14.6766802,120.5352959,low_confidence,distance=46.2km>5.0km
1249406629,Master Chef,restaurant,Food/Drink,14.6765813,120.5350882,low_confidence,distance=52.6km>5.0km
1249450779,Trifi Internet Cafe,cafe,Food/Drink,17.6158836,121.7296402,zero_results,ZERO_RESULTS
1249503856,Zugba Grill & Resto Bar,restaurant,Food/Drink,7.042336,125.5833962,low_confidence,distance=678.4km>5.0km
1249889625,Itaewon,restaurant,Food/Drink,7.0624456,125.5964363,low_confidence,distance=3391.7km>5.0km
1249998589,Carreon's Sweets & Pastries,cafe,Food/Drink,15.136344,120.591682,low_confidence,distance=11.3km>5.0km
1250743401,Tita's Bulalo Station,restaurant,Food/Drink,7.2739384,125.669377,low_confidence,distance=439.6km>5.0km
1250879400,Lambat Grill & Restaurant,restaurant,Food/Drink,7.3109351,125.6847029,low_confidence,distance=998.2km>5.0km
1250879434,Empoy's Grill,restaurant,Food/Drink,7.3030005,125.6799279,zero_results,ZERO_RESULTS
1250973624,Old Valencia Home (flood ruin),ruins,Attraction,15.0401921,120.7026619,zero_results,ZERO_RESULTS
1251071705,La Union Resthouse,guesthouse,Accommodation,16.595557,120.3017146,low_confidence,name_similarity=56
1251436475,Fontanilla Hotspring,swimming_pool,Park/Nature,16.4343125,120.5063159,zero_results,ZERO_RESULTS
1252089818,South Pacific Community Clubhouse,restaurant,Food/Drink,7.0704438,125.5171548,low_confidence,name_similarity=58
1252279095,Carribean Sparkless Ladies Dorm,guesthouse,Accommodation,7.0324038,125.4951316,low_confidence,distance=56.9km>5.0km
1252292223,Non Omnis Moriar Knights of Rizal,memorial,Attraction,9.3056308,123.3081678,low_confidence,distance=640.2km>5.0km
1252307743,Toril Homestay Inn,guesthouse,Accommodation,7.0129401,125.4999896,zero_results,ZERO_RESULTS
1252438665,Banambo Grill,restaurant,Food/Drink,7.4602083,125.8193308,low_confidence,distance=393.1km>5.0km
1252494430,Camp John Hay Amenities,tourist_info,Other,16.3997941,120.6148976,low_confidence,name_similarity=41
1252757721,The Statue of Liberty,artwork,Attraction,16.3989305,120.6170696,low_confidence,distance=13489.0km>5.0km
1252757724,Lost Cemetery,park,Park/Nature,16.3992622,120.6172399,low_confidence,name_similarity=57
1253675445,Glory Hole,hotel,Accommodation,13.9612232,121.5170933,low_confidence,distance=33.9km>5.0km
1253818238,Taverna Eleazar Bar & Grill,bar,Food/Drink,14.6412186,121.0264916,low_confidence,distance=8.4km>5.0km
1253874979,Gimik Barkada Ktv,pub,Food/Drink,7.067406,125.6071826,low_confidence,distance=406.7km>5.0km
1254067383,Dis Way ang Lutong Noypi,restaurant,Food/Drink,7.0599191,125.537144,low_confidence,distance=7.1km>5.0km
1254081235,P.A.F. Jet Fighter,attraction,Attraction,16.3604192,120.6192574,low_confidence,name_similarity=39
1254081285,Cadet Circle,attraction,Attraction,16.3715407,120.6276445,low_confidence,distance=12814.0km>5.0km
1254081394,Maagap Cafe,cafe,Food/Drink,16.3619706,120.6200568,low_confidence,distance=187.9km>5.0km
1254150105,Our Lady of Fatima Grotto,artwork,Attraction,16.3670773,120.6201472,low_confidence,distance=221.6km>5.0km
1254150141,The Long Gray Line (Graduate's Class Seals),attraction,Attraction,16.3609449,120.6204371,zero_results,ZERO_RESULTS
1254150160,Kiosk '55,attraction,Attraction,16.3597406,120.6195868,low_confidence,distance=9915.7km>5.0km
1254150163,Lorenzo Hall,restaurant,Food/Drink,16.360727,120.6207508,low_confidence,distance=206.3km>5.0km
1254150287,Propeller Blade,attraction,Attraction,16.3609779,120.6202531,low_confidence,distance=12674.2km>5.0km
1254229874,Matindi '63 Park,attraction,Attraction,16.3666011,120.6223252,zero_results,ZERO_RESULTS
1254229888,Tree House - P.M.A.,attraction,Attraction,16.3595121,120.6193842,zero_results,ZERO_RESULTS
1254229902,Alumni Memorial,memorial,Attraction,16.3716229,120.6251618,low_confidence,distance=13031.9km>5.0km
1254229904,Wishing Well 63,attraction,Attraction,16.3664485,120.6221765,low_confidence,distance=13437.1km>5.0km
1254229953,Maagap Mini Park,park,Park/Nature,16.363756,120.6206211,low_confidence,distance=126.8km>5.0km
1254343670,Centennial Marker,memorial,Attraction,16.3608548,120.6191669,low_confidence,distance=159.8km>5.0km
1254343688,Huey Helicopter,attraction,Attraction,16.3602208,120.6193074,low_confidence,distance=12118.4km>5.0km
1254382238,General Gregorio Del Pilar Monument,memorial,Attraction,16.3716916,120.6281219,low_confidence,distance=177.2km>5.0km
1255073169,Brassrail Music Lounge,bar,Food/Drink,14.6482419,121.0286363,low_confidence,distance=14153.4km>5.0km
1255117475,Kamayo Lodge,guesthouse,Accommodation,8.1870229,126.3356078,low_confidence,distance=918.9km>5.0km
1255128565,The Coffee Beanery,cafe,Food/Drink,14.6540619,121.0299231,low_confidence,distance=9.0km>5.0km
1255247117,Bay View Hotel,hotel,Accommodation,14.0000889,121.9280112,low_confidence,distance=120.9km>5.0km
1256302783,Nicole's Bakery,bakery,Food/Drink,14.1812279,121.2805545,low_confidence,distance=11.2km>5.0km
1256312478,Farm Landia Hotels,hotel,Accommodation,14.8368678,120.480088,low_confidence,distance=39.5km>5.0km
1256324668,Jose Rizal (1861–1896),memorial,Attraction,14.2136588,121.1674223,low_confidence,name_similarity=50
1256324938,Birthplace of Jose Rizal,memorial,Attraction,14.2137138,121.1666451,low_confidence,name_similarity=42
1256358130,Japanese Garden Picnic Area,picnic_site,Park/Nature,14.2830885,121.5106345,low_confidence,distance=66.3km>5.0km
1257723978,Edu Vigis,cafe,Food/Drink,13.9334365,121.6118069,low_confidence,distance=66.7km>5.0km
1258187928,Mr. Park's Bread & Cake,bakery,Food/Drink,14.4280988,121.0224412,low_confidence,distance=14.3km>5.0km
1258241460,Cowboy Grill,restaurant,Food/Drink,14.4323305,121.0141373,low_confidence,distance=16.6km>5.0km
1258282388,Bugsy's Bar & Bistro,restaurant,Food/Drink,14.4215882,121.0342917,low_confidence,distance=15.3km>5.0km
1258961560,G51,bar,Food/Drink,13.956263,121.5712627,low_confidence,distance=10772.2km>5.0km
1259279497,Lheans Bakery,bakery,Food/Drink,14.2919753,121.4604234,low_confidence,distance=85.6km>5.0km
1259749270,Hearsay,artwork,Attraction,14.5507062,121.0504803,zero_results,ZERO_RESULTS
1260418132,Paete Tourism Office,tourist_info,Other,14.3643257,121.4815128,low_confidence,name_similarity=45
1260418136,Albino's Goto,restaurant,Food/Drink,14.3650173,121.4835462,low_confidence,name_similarity=38
